University,Approved Amount,Raw localisation
AO Research Institute - AORI,3435621.0,"{'results': [{'icon': 'https://maps.gstatic.com/mapfiles/place_api/icons/generic_business-71.png', 'formatted_address': 'Clavadelerstrasse 8, 7270 Davos Platz, Switzerland', 'place_id': 'ChIJ_4sD5OGjhEcRAhsEC0Ho6Jc', 'geometry': {'location': {'lng': 9.8136932, 'lat': 46.7771199}, 'viewport': {'northeast': {'lng': 9.81515045, 'lat': 46.77750840000001}, 'southwest': {'lng': 9.81320745, 'lat': 46.7769904}}}, 'types': ['point_of_interest', 'establishment'], 'reference': 'CmRSAAAApinJQc9u6PPnTlMEmD4WhYJ2gryO8wx0meETXXnHze3k9T2b_f4HLjYNqfAS1XcHooFcVA1iGmljCZqsWw5Okzs-4XqQsVf7mQO5VBupeQlsAQFTLi0LAbLUwrb27XvnEhDabxkdmjNY5fgD-bW9nyQHGhSgBBSkTWY8t71OT7FhbKcWvEiBmw', 'name': 'AO Foundation', 'id': 'ed2c7ad8234eefdf945acd24ff902f67f0ddc8e4', 'photos': [{'photo_reference': 'CoQBcwAAAGlKVO8kV5TWVBZeWnNOnQPpd3-FfMsxveyeR_QlNW_dfDRawUmRwThEdzdzNIdQFq-skBctfqdJ2HePhZBTA68prwLrs9v7iWw2-QnHS36xTXF7qUIy5eDb5EtmSpA4Pril4fbJ9cQYiua0ETlE1_9aX3yGD0WQPCqUVD1svFI-EhAjL0bWdydmrU0IcHlGIOsfGhTw6TqONphsDIylTvuBxGdgY648AQ', 'html_attributions': ['<a href=""https://maps.google.com/maps/contrib/102107626439011911360/photos"">AO Foundation</a>'], 'height': 2760, 'width': 5640}]}], 'html_attributions': [], 'status': 'OK'}"
Allergie- und Asthmaforschung - SIAF,19169965.0,"{'results': [{'icon': 'https://maps.gstatic.com/mapfiles/place_api/icons/generic_business-71.png', 'formatted_address': 'Obere Str. 22, 7270 Davos Platz, Switzerland', 'place_id': 'ChIJL3RyxgGkhEcR24v33tCoi5A', 'geometry': {'location': {'lng': 9.8200409, 'lat': 46.7954192}, 'viewport': {'northeast': {'lng': 9.82028165, 'lat': 46.79571619999999}, 'southwest': {'lng': 9.81931865, 'lat': 46.79532020000001}}}, 'types': ['point_of_interest', 'establishment'], 'reference': 'CmRSAAAA_sQi97X0Joc7hnfvGUTfPRkVunGSZaRDRln_3nyhOiX7aECkD8v0J_LGKLvGKYKIg66mZpgTk6cvbLptJ7-9OhB3ZiWJn615h10vmFDxdURO3Vkr1qwre0rzbmTbXJujEhCs3BctOW__2A7bDqyFNxMcGhQ4ipq1XO8YvmQmeE7xM_ibGEq32Q', 'name': 'Schweiz. Institut f. Allergie- u. Asthmaforschung', 'id': 'ea435d78b7507556ed24683ca26f040f93a8d840'}], 'html_attributions': [], 'status': 'OK'}"
Berner Fachhochschule - BFH,31028695.0,"{'results': [{'icon': 'https://maps.gstatic.com/mapfiles/place_api/icons/school-71.png', 'formatted_address': 'Pestalozzistrasse 20, 3401 Burgdorf, Switzerland', 'place_id': 'ChIJ6bXhNJYtjkcRJlq1dt7PsFE', 'geometry': {'location': {'lng': 7.621387700000001, 'lat': 47.0574225}, 'viewport': {'northeast': {'lng': 7.62196715, 'lat': 47.05758895000001}, 'southwest': {'lng': 7.62119455, 'lat': 47.05692314999999}}}, 'types': ['university', 'point_of_interest', 'establishment'], 'reference': 'CmRRAAAAtqEnDJqmNnlzzLpPEVbQQuIj8MM8ahC0y7x5NL05HyIBrMWC2LGohxOnzsdrDIHvWgLJLyUdb8u56or2v_pyWRDxyrr9HO59V-z2g_m2DHt_UIqW0-yyJ3mYRmeJ8gLGEhCKXrhUMGwHOz1dZjltZMr9GhR6a3Wt-gAK9ywc3D3c6RAJo6VGcQ', 'name': 'Berner Fachhochschule BFH, Architektur, Holz und Bau', 'id': 'a130a34c668ad1446d6e93ea5fcaa169f858fbfd', 'photos': [{'photo_reference': 'CoQBdwAAABwJCS0FWowDevgD_zDQNs3pD_VynItdVB4qJNpb6keXp9iTDRkuiMmXzbBkc4fpzJFdGLbUanx12yTY-WWYt8lmB3us0y2qZqKU8d8HCOjXXzSEsjPxPDA4GpsCcA2A9tQQ9QvqISVzisH0BgPwmW6DTvc63Oj8Hz0D8EkCiOc4EhCxJ73DvISgHhQ0HOStg-LCGhST-zxRNOsahZ5asRa8tiaoDyK3wg', 'html_attributions': ['<a href=""https://maps.google.com/maps/contrib/105561145766868824931/photos"">Berner Fachhochschule BFH, Architektur, Holz und Bau</a>'], 'height': 853, 'width': 1280}], 'opening_hours': {'weekday_text': [], 'open_now': False}}], 'html_attributions': [], 'status': 'OK'}"
Biotechnologie Institut Thurgau - BITG,2492535.0,"{'results': [{'icon': 'https://maps.gstatic.com/mapfiles/place_api/icons/shopping-71.png', 'formatted_address': 'Unterseestrasse 47, 8280 Kreuzlingen, Switzerland', 'place_id': 'ChIJj4vWuNv2mkcRfOGoYejYRVw', 'geometry': {'location': {'lng': 9.161303, 'lat': 47.64832730000001}, 'viewport': {'northeast': {'lng': 9.161376649999998, 'lat': 47.64847415}, 'southwest': {'lng': 9.161278450000001, 'lat': 47.64827835000001}}}, 'types': ['clothing_store', 'jewelry_store', 'furniture_store', 'home_goods_store', 'store', 'point_of_interest', 'establishment'], 'reference': 'CmRRAAAA_Hl37Wft4HjM1bWEGtFBBhUtgAx8SlB6BYmHUkeGiTONdZIgb4P18C-luG4uYdX3lIvse-L03AIZtTs7OBwpDFS9jAZZsGoiR27fuzrcywwUGVR5tosSRJVDgxukKolmEhBCydbxXLrtQB_Af9wZIm51GhS_IXd3cm2CGFxYzxgqhYArLM5bOg', 'name': 'Biotechnologie Institut Thurgau (BITg)', 'id': 'd31367348596c478587fb251dc432d9884da7ad1'}], 'html_attributions': [], 'status': 'OK'}"
Centre de rech. sur l'environnement alpin - CREALP,1567678.0,"{'results': [{'icon': 'https://maps.gstatic.com/mapfiles/place_api/icons/generic_business-71.png', 'formatted_address': ""Rue de l'Industrie 45, 1950 Sion, Switzerland"", 'place_id': 'ChIJ6croVybcjkcRKj6rSq6f50o', 'geometry': {'location': {'lng': 7.367433499999999, 'lat': 46.2285589}, 'viewport': {'northeast': {'lng': 7.36832195, 'lat': 46.2288893}, 'southwest': {'lng': 7.367137349999997, 'lat': 46.22756769999999}}}, 'types': ['point_of_interest', 'establishment'], 'reference': 'CmRRAAAAME7dsR-MoDSShms2Y6vKuQKyNjo-LXb2KtKWqRNgXTAIc2Ai2bV_G2SEzH-Hyolcmd07QTvfRxeImjvZUhN8hzXV0l3U-4n5XlXXkwTvL_pEWz86V4_N_79NaQuDpinQEhCyfk6G2egjC3t_WR4ClKC7GhTdCUK-dOZcxO8wE4n0_ODrU_7J1Q', 'name': ""Centre de Recherche sur l'Environnement Alpin (CREALP)"", 'id': 'f67d1d8a59f8f881c7891546ae05a7d52403be22'}], 'html_attributions': [], 'status': 'OK'}"
EPF Lausanne - EPFL,1175315913.92,"{'results': [{'icon': 'https://maps.gstatic.com/mapfiles/place_api/icons/school-71.png', 'formatted_address': 'Route Cantonale, 1015 Lausanne, Switzerland', 'place_id': 'ChIJP6Ls3f0wjEcRcrKTf6s0zLs', 'geometry': {'location': {'lng': 6.566757600000001, 'lat': 46.5190557}, 'viewport': {'northeast': {'lng': 6.578166349999998, 'lat': 46.53140225}, 'southwest': {'lng': 6.558052949999999, 'lat': 46.51117604999999}}}, 'types': ['university', 'point_of_interest', 'establishment'], 'rating': 4.7, 'reference': 'CmRSAAAAjmvyx952Jx3sUgYwOB2rcc7zfpbhQQ4tQTmqeaQ8KZ-zKsNia5W0OZIjHjA6yoNVyO8MeMJBwWIsviXlAh5G491qtMre6cmlxkT4rrd8qr9oce-xtkwxtKZimMfJdeufEhDuo3VsWvgcItAxz1OZHEX4GhQp9WDc4MveUJzZT9FrADwFm2K3lw', 'name': 'Swiss Federal Institute of Technology Lausanne', 'id': '2196b8e3286e20103001090b9c2a95a40c14679a', 'photos': [{'photo_reference': 'CoQBdwAAAG8ocyoIB9wYl5lcgTTdjKU0bQfzE_fYFsisWQ0Lzc02Kv4qD2ypPNsFpUdSD-yp-w0hpyAsDSUn_0f7gd0ndO9pQdHPyg7T8Btijq7vV0Lnlpz_j5WefCjei_-KXBfPZuuhmBDtuaGR2NM5GgieQb6kI9BtPQ8AxINMrBUrDfcNEhBXdKP11UxQLDDXGT_3sEDuGhRHknfguaYIt1qriJXXu7KqetIZ0g', 'html_attributions': ['<a href=""https://maps.google.com/maps/contrib/106017492741965351692/photos"">JM THOMAS</a>'], 'height': 3366, 'width': 5984}]}], 'html_attributions': [], 'status': 'OK'}"
ETH Zürich - ETHZ,1635596618.2500002,"{'results': [{'icon': 'https://maps.gstatic.com/mapfiles/place_api/icons/school-71.png', 'formatted_address': 'Rämistrasse 101, 8092 Zürich, Switzerland', 'place_id': 'ChIJ94xuUaagmkcRB3Y3tij0YUs', 'geometry': {'location': {'lng': 8.547669899999999, 'lat': 47.376313}, 'viewport': {'northeast': {'lng': 8.550140100000002, 'lat': 47.3817691}, 'southwest': {'lng': 8.542161699999998, 'lat': 47.37449429999999}}}, 'types': ['point_of_interest', 'establishment'], 'rating': 4.8, 'reference': 'CmRRAAAAVxamcjzQi-QQ8v9BbDSYAV_p4mDkcSVRUUqdNfRsIeKF9PUGaDPKfwXs9wenDjSRU0AU356-h0jA37xiebqhXLx_t9cneqvfQQJM6fw8vYHtjiWsPMxGVOUiGGwz2TiuEhB-GnCV_XNgE8Lz52wawGCKGhSOBXpC2sx5EIUv1hzF-ZNZilFdpQ', 'name': 'ETH Zürich', 'id': 'a264f646db0b59c630e91af59ea42bc1eb1292f7', 'photos': [{'photo_reference': 'CoQBdwAAAFxZI9ZLEwDfR3yyiDDkfI3iQT-nXCDX8YXhC7T7KbgHsuc5ZNi_CeICLTN8-l2zAtU009DdCcJLcB3jWFGFKuN54iwqRDW5vvazY8kFa-T_UiY3FTFjxXsHhNuy4yU4NBy3Pbqo-NHfmVTxCSlRcu9JK3SetBE_vLvaIHH8eNSmEhDeNsCymp9r-klaKTf8VJEhGhTtoPNsQILp6B9TJILw4_CoACWjiA', 'html_attributions': ['<a href=""https://maps.google.com/maps/contrib/107778637273482441058/photos"">Anirudh Ramesh</a>'], 'height': 720, 'width': 960}]}], 'html_attributions': [], 'status': 'OK'}"
Eidg. Anstalt für Wasserversorgung - EAWAG,74619222.37,"{'results': [{'icon': 'https://maps.gstatic.com/mapfiles/place_api/icons/school-71.png', 'formatted_address': 'Überlandstrasse 133, 8600 Dübendorf, Switzerland', 'place_id': 'ChIJr-jr3qehmkcRMfRU__G-l2A', 'geometry': {'location': {'lng': 8.609547599999999, 'lat': 47.4037666}, 'viewport': {'northeast': {'lng': 8.609918700000001, 'lat': 47.40381404999999}, 'southwest': {'lng': 8.6094239, 'lat': 47.40362425}}}, 'types': ['point_of_interest', 'establishment'], 'reference': 'CmRRAAAAh4eFwKuLi9jlymDuzedlM_GcGIKBq7kHOE5CKH9Z34rWAaKdqlK9Zcfaa_mA1KU0q6BYfVbM-8JyYYl_4sTNw7fIOF-vYzI9CEKSMFIR8YSaAOqjVH3Z_Mrxof-qMHmFEhCK2nn5MOuvWmtfIDkmbisDGhTT-V8Wbh4FKsRiFfS2sVzoSVPIQw', 'name': 'Eawag', 'id': '4a898a6632e8ffd88eb77289057e9707241b63c1', 'photos': [{'photo_reference': 'CoQBcwAAADNgeIOaz-ZhqelEU54dqc3UHog4S8F5MW2ZV1tbgK0VzlgwedR7SZeil2oZrCeDcyBFnLFSBjh0qz-QyOkXlx8CltPY3zkhvc4pdB1RtQ73V3Rgdsi3z04XXVE6BDjVfsnyNvj51c0Prp67iLL-a08y3RFbpxqEL1Qmr_RNqbpVEhB-tGPPybfXdWBUNaDct6s-GhRsDA4sIe4bMv1B-uEAO2PYwNCgYA', 'html_attributions': ['<a href=""https://maps.google.com/maps/contrib/100950679946704667515/photos"">Anke Poiger</a>'], 'height': 2400, 'width': 3600}]}], 'html_attributions': [], 'status': 'OK'}"
"Eidg. Forschungsanstalt für Wald,Schnee,Land - WSL",48360389.629999995,"{'results': [], 'html_attributions': [], 'status': 'ZERO_RESULTS'}"
Eidg. Hochschulinstitut für Berufsbildung - EHB,2086572.0,"{'results': [{'icon': 'https://maps.gstatic.com/mapfiles/place_api/icons/school-71.png', 'formatted_address': 'Kirchlindachstrasse 79, 3052 Zollikofen, Switzerland', 'place_id': 'ChIJf7RcrFw6jkcRJFfAt3K7mns', 'geometry': {'location': {'lng': 7.450692999999999, 'lat': 47.001506}, 'viewport': {'northeast': {'lng': 7.451148849999999, 'lat': 47.00280245}, 'southwest': {'lng': 7.450541049999998, 'lat': 47.00107385}}}, 'types': ['point_of_interest', 'establishment'], 'reference': 'CmRRAAAAWo3ArIU3v5G2-KOENUXmQcLi9zmA47jYx-_RgjJTJA3z1rlqXR0HeBNmVk9Mjd2fJQ31Lta8gvWXo7TPZ0exFA_NH_xfV0jHVhgohuvFLLzyvZMrVop93CP9K7zaMX77EhBIIUQuWOu3MCsscC0_sjt0GhQZuVW-xuRGWuNiDIqcTPRYazDONA', 'name': 'Eidgenössisches Hochschulinstitut für Berufsbildung EHB', 'id': '21aff99705753da8bc2d7882f861e3eee4097a13', 'photos': [{'photo_reference': 'CoQBdwAAAOfoJQWaOjTz_oH7aRpat8IUemSVm8lyExXHSJSb7IBStxfQ495G6VsEbzr1X0AMQiJnnfokZde07wiLyZAhDYpvFV1gpZZuFm34lQDW9CGspda4KauklNSFGfeNg1y5Yw4EHBqT960Ml8wnxUsKNYQ_DsUSsCw2sSbs7OaD_JxlEhDzApWXCvhEfEZucAnFSUuWGhQtrqh614BBZgAuLFkTiPR5ca3hhQ', 'html_attributions': ['<a href=""https://maps.google.com/maps/contrib/112212445904206729476/photos"">Eidgenössisches Hochschulinstitut für Berufsbildung EHB</a>'], 'height': 832, 'width': 1248}], 'opening_hours': {'weekday_text': [], 'open_now': False}}], 'html_attributions': [], 'status': 'OK'}"
Eidg. Material und Prüfungsanstalt - EMPA,58574515.92,"{'results': [], 'html_attributions': [], 'status': 'ZERO_RESULTS'}"
Ente Ospedaliero Cantonale - EOC,5067172.0,"{'results': [{'icon': 'https://maps.gstatic.com/mapfiles/place_api/icons/doctor-71.png', 'formatted_address': 'Viale Officina 3, Bellinzona, Switzerland', 'place_id': 'ChIJe7akFTNKhEcRKvjBP5odqdA', 'geometry': {'location': {'lng': 9.026636499999999, 'lat': 46.1968913}, 'viewport': {'northeast': {'lng': 9.026905900000001, 'lat': 46.19694885}, 'southwest': {'lng': 9.026546699999997, 'lat': 46.19671865}}}, 'types': ['hospital', 'point_of_interest', 'establishment'], 'reference': 'CmRSAAAAeyGkHCk9rEvWE-7UQcIwMA1QQjDDC9Rvt5E8350v3DLkUaXZ0duPH_rTcJyKongGls_iQMjCwqGKYnQFXNOBAVxwyjQclTUkdnZk7SpI9J671Yal_JrMVcZbuHAAenBIEhBf4Bgxod3_eEdvu6C8ubpEGhQnSU06ktDSe-VGbEvFHBSxzWc-Jw', 'name': 'Ente Ospedaliero Cantonale', 'id': 'a9a3d6bfc2b8c10377892588918227aa403b7fd9', 'photos': [{'photo_reference': 'CoQBdwAAALQc07i7iIQE5IpJGTaZJhI11Wjcr2nW38yUkPfevxiUkHEREbRjbLxdBSDyQdMCAo8T_uqdZ8gSKioSS3Oj6krrpkj2nHbQjX-Sx3ffaeFE72LnPVd23QbXVk7akV-ELpKjl-M3LXol2HqWWtFWJdNqO0hClH0FLnUNr6KYgeT1EhDTVp3UrZNIkNE-uJ-Dmvo4GhSr94Q-3IlOTCuyLwtVLPuKpVGhWQ', 'html_attributions': ['<a href=""https://maps.google.com/maps/contrib/113223259282903616271/photos"">Daniel Vasile Tishchenko</a>'], 'height': 2106, 'width': 3200}]}], 'html_attributions': [], 'status': 'OK'}"
Fachhochschule Kalaidos - FHKD,1090280.0,"{'results': [{'icon': 'https://maps.gstatic.com/mapfiles/place_api/icons/school-71.png', 'formatted_address': 'Jungholzstrasse 43, 8050 Zürich, Switzerland', 'place_id': 'ChIJ9wao_skLkEcRo4WeybwJAx8', 'geometry': {'location': {'lng': 8.543825, 'lat': 47.415454}, 'viewport': {'northeast': {'lng': 8.5444286, 'lat': 47.41547559999999}, 'southwest': {'lng': 8.543623800000002, 'lat': 47.4154468}}}, 'types': ['point_of_interest', 'establishment'], 'reference': 'CmRRAAAAEqHywJc6TDBg7-DD95zp9rA1-vySc_bhB-Kt4Ly0dJL3gSeDRb-Ix8gBR2OWKIDZLuZX6h2Sop4a1zBrGDt3dgusRUJmKhcqG205UAq9AwyqHrZ22GVnNEjI2xjqIvEBEhC3C0f9_mbQFhYUczkakrRBGhSUxspdqnGnpi-6YwFvVLiXp5exXw', 'name': 'Kalaidos Fachhochschule Schweiz', 'id': 'ae3b108ea8deb9f2dea12df7b9d7b00a9e407bbb'}, {'icon': 'https://maps.gstatic.com/mapfiles/place_api/icons/school-71.png', 'formatted_address': 'Pestalozzistrasse 5, 8032 Zürich, Switzerland', 'place_id': 'ChIJh-yc8a-gmkcRrIKY0a70LCs', 'geometry': {'location': {'lng': 8.554032, 'lat': 47.375067}, 'viewport': {'northeast': {'lng': 8.554269499999998, 'lat': 47.3751896}, 'southwest': {'lng': 8.553319500000002, 'lat': 47.37469920000001}}}, 'types': ['university', 'point_of_interest', 'establishment'], 'reference': 'CmRRAAAATuHuJCH-FjxSMH2eCsF72OZk69uNqvoOor0LlNTFhReK4a0pwd9FFuKwe9fQHIi5l-29XlnFzY93CD8KZHd_mwyZvwGyjylFUDIuGCu4xqS2k9k7B_vxSffg8e7079DqEhCkVPaSG6-IWCoDsyTz7KFOGhTYx7rW_zRvKYNAshxGPTIuTtfu-A', 'name': 'Kalaidos Fachhochschule Gesundheit', 'id': 'bad731ec952ca0380dac8558c56c45e9e2104097'}], 'html_attributions': [], 'status': 'OK'}"
Fachhochschule Nordwestschweiz (ohne PH) - FHNW,42771914.120000005,"{'results': [], 'html_attributions': [], 'status': 'ZERO_RESULTS'}"
Fachhochschule Ostschweiz - FHO,4437056.0,"{'results': [{'icon': 'https://maps.gstatic.com/mapfiles/place_api/icons/school-71.png', 'formatted_address': '9000 St Gallen, Switzerland', 'place_id': 'ChIJ_TCgzTQem0cR46YGJGOqe8g', 'geometry': {'location': {'lng': 9.363574999999999, 'lat': 47.4208058}}, 'types': ['university', 'point_of_interest', 'establishment'], 'reference': 'CmRSAAAA6FgbxEH_JKRwMSjDNDWHLthKmWA6sUNSFKcIHYywAcwJTASL7z7hjxbwcfe45Ei8Ceuy046ukInSb1vGqE99k1p9Y8h1y5CFgkqDPBBu4Lk_BXa3Cl9p7ng77vY8QD71EhCyBnZjWodMlbjTrFqzDTmVGhQfCyDxDD4vhiwKnXJlvfE7koXxUg', 'name': 'FHO Fachhochschule Ostschweiz', 'id': 'e8baef719544ed6c0130b957a6a542e12f503a77'}], 'html_attributions': [], 'status': 'OK'}"
Facoltà di Teologia di Lugano - FTL,8000.0,"{'results': [{'icon': 'https://maps.gstatic.com/mapfiles/place_api/icons/generic_business-71.png', 'formatted_address': 'Via Giuseppe Buffi 13, 6900 Lugano, Switzerland', 'place_id': 'ChIJp_o0moothEcRwaukV499AiQ', 'geometry': {'location': {'lng': 8.9579396, 'lat': 46.0106931}, 'viewport': {'northeast': {'lng': 8.958119750000002, 'lat': 46.01086165}, 'southwest': {'lng': 8.957879550000001, 'lat': 46.01018744999999}}}, 'types': ['point_of_interest', 'establishment'], 'reference': 'CmRRAAAAaqx8JcxTK71oLPDZ8OqXDO_cnWBiXsyC_nOO2eYr_J924r_1GcmVA9tFXpVbytAK_ZJ_lvwB9SH4vwxevjOEJ0KXDm_4O34aFTrDGWMiV6V-2aYqv_8WpsA0dvf7syPREhApeYvbsWEPyDE_KT9F0uHoGhQBUkaJTH7hZcAm2Ak6yNPmopFlIw', 'name': 'Fondazione DiReCom c/o Facoltà di Teologia di Lugano', 'id': 'bc6dfef0bde4c9b50b5988a519df0013721ac4ee'}], 'html_attributions': [], 'status': 'OK'}"
Fernfachhochschule Schweiz (Mitglied SUPSI) - FFHS,12000.0,"{'results': [{'icon': 'https://maps.gstatic.com/mapfiles/place_api/icons/school-71.png', 'formatted_address': 'Überlandstrasse 12, 3900 Brig, Switzerland', 'place_id': 'ChIJay-0u81uj0cRZ-EgOBlkHBs', 'geometry': {'location': {'lng': 7.983177, 'lat': 46.317923}}, 'types': ['university', 'point_of_interest', 'establishment'], 'reference': 'CmRRAAAA0JQ_m5wu6aFHtTA7EHN-gMTPnlWFyas2k23p9OIgAu-OwBeTVxIPywdSTsxvV6oArmHoOlohQzmFjTw5t8S4aUF1IudoLM_e6voT5rIWLr8Vy070ZTVssDSyxSPEUmMtEhCFBLTahaaM1bIWFpmEkEscGhResr0TMOMNHTx0wsNni54yRhApnw', 'name': 'Fernfachhochschule Schweiz (FFHS)', 'id': '3b6f47ece964500562abac2785c724d6ee5bf5b1', 'photos': [{'photo_reference': 'CoQBdwAAAKerLMl3W4aByYEUg7g9rndi5b0kvXFOgpSBVk5MM_EpsmQZpsbQGGfZXMbQgl0ehEfiJLR_789QF2sTsHzuslx7_qTrJj5BuS-R9Z9KM_NQzQY4Ap12PS__oZE89bt_9iSY8lL0zaLnJd83yWwhdZuoRaise7NgMUlyouX9ASsLEhAYjaiCbaYQtii2slqY8QpnGhSQ-MOiLVw_-vhlGp91x1jaZWkfSw', 'html_attributions': ['<a href=""https://maps.google.com/maps/contrib/102730127200208593336/photos"">Fernfachhochschule Schweiz (FFHS)</a>'], 'height': 1165, 'width': 1168}], 'opening_hours': {'weekday_text': [], 'open_now': True}}], 'html_attributions': [], 'status': 'OK'}"
Forschungsanstalten Agroscope - AGS,33115719.0,"{'results': [], 'html_attributions': [], 'status': 'ZERO_RESULTS'}"
Forschungsinstitut für Opthalmologie - IRO,3478469.0,"{'results': [{'icon': 'https://maps.gstatic.com/mapfiles/place_api/icons/generic_business-71.png', 'formatted_address': 'Schleichstraße 12, 72076 Tübingen, Germany', 'place_id': 'ChIJ5c4_LSvlmUcR4q_O-V1INQ8', 'geometry': {'location': {'lng': 9.0534833, 'lat': 48.523927}, 'viewport': {'northeast': {'lng': 9.053487249999998, 'lat': 48.5240207}, 'southwest': {'lng': 9.053471850000001, 'lat': 48.52389509999999}}}, 'types': ['point_of_interest', 'establishment'], 'reference': 'CmRRAAAAdT_8kjkaHukRtRq3OtebrPpEMCWE-zq7g5ZF_817rwO_LybJMwq9NqyPCyR6cfD49iNkOfU9JoCTFmjOmPzhIvjhBFCOGWppzhoimQgoU1_Nagfx4LVg88rPezkY3xvIEhDyogs68KlxFocIrqASExzVGhSFQoIrYwRb_YOQpYGyosZaisIDyg', 'name': 'Institute for Ophthalmic Research', 'id': 'a95ea1e69575da861f00b67d6115c695d47277f3'}], 'html_attributions': [], 'status': 'OK'}"
Forschungsinstitut für biologischen Landbau - FIBL,7442410.0,"{'results': [{'icon': 'https://maps.gstatic.com/mapfiles/place_api/icons/generic_business-71.png', 'formatted_address': 'Kasseler Str., 60486 Frankfurt am Main, Germany', 'place_id': 'ChIJbYHlnWgJvUcRrFPg6Gkzo8s', 'geometry': {'location': {'lng': 8.638150000000001, 'lat': 50.12062}, 'viewport': {'northeast': {'lng': 8.638318850000005, 'lat': 50.12073415}, 'southwest': {'lng': 8.637643449999999, 'lat': 50.12027755}}}, 'types': ['point_of_interest', 'establishment'], 'reference': 'CmRSAAAAbU-XkIzuqnOCGBRxpZPlCg2VVz-7nZqj3asCvuT3LkXcK-oDz_3pkX44mbYpfkqldvg91ZQAIGDYlMPSrVihiArj2e2bCywRso2J6b10apIgmXx6Oog5I4182ZBp_8MaEhCoYFvr8WQmLPNxJ3BlLJJ1GhTthd4KesdHR4vVcp85Hzac9EbiGA', 'name': 'Forschungsinstitut für biologischen Landbau FiBL', 'id': '33a9d5aec3dc63358126aad172fb091e386ec8f2'}, {'icon': 'https://maps.gstatic.com/mapfiles/place_api/icons/generic_business-71.png', 'formatted_address': 'Galvanistraße 28, 60486 Frankfurt am Main, Germany', 'place_id': 'ChIJg96A1mUJvUcRqJswsfgfVqM', 'geometry': {'location': {'lng': 8.636379999999997, 'lat': 50.11775120000001}, 'viewport': {'northeast': {'lng': 8.636453899999994, 'lat': 50.11775235000002}, 'southwest': {'lng': 8.636158300000005, 'lat': 50.11774774999999}}}, 'types': ['point_of_interest', 'establishment'], 'reference': 'CmRSAAAAYfuR2pTAWMpJCCezXfoGctVsrZVM0Lcpg1cyMrb0POTEOb1Al_2KRxyUN_nq1MC94OgTQI-l_vC7N-h70f6nkIzjbeAaRNR5aKOTEZvvCM9UqSr9-JYOmkeU7yL6gqjOEhAmCKB1FNuKSx6xIqkMrYW8GhRaBqJiYed9JB-bKwbl9cWB1iWo-w', 'name': 'Forschungsinstitut für biologischen Landbau FiBL Deutschland e.V.', 'id': '1c3c39b609d405f27eeb2343fa8be6915047e00a'}, {'icon': 'https://maps.gstatic.com/mapfiles/place_api/icons/school-71.png', 'formatted_address': 'Ackerstrasse 113, 5070 Frick, Switzerland', 'place_id': 'ChIJV2J9KrZHkEcRH1IKjqoKSH4', 'geometry': {'location': {'lng': 8.025083, 'lat': 47.51693900000001}, 'viewport': {'northeast': {'lng': 8.025233550000001, 'lat': 47.51724605}, 'southwest': {'lng': 8.024631349999998, 'lat': 47.51683665000002}}}, 'types': ['point_of_interest', 'establishment'], 'reference': 'CmRRAAAAqfAX6BaIl8PUZyAaN_-lRIf7MWBI_ghMXeQUj2thB1rVuQIQfhX46eeUzdRGNhE9po_KkZj9jFKSiJ9SMJaBeyurGKb9M_6j5ZFnx55RknnDGb49hCxriQfF7-6DaATtEhDW5vSZTzZbnhgkT4zpyogoGhSVd_91MctAxl8Wk1jHNkiLZC84Jg', 'name': 'FiBL - Forschungsinstitut für biologischen Landbau', 'id': 'a28321e7dc47e4931324776894026623566eada7', 'photos': [{'photo_reference': 'CoQBcwAAAI6O5rrzpYTSS6qEf2Idyz36Tbi6GVo_TmQsILPqm7gkT9SSp7X92BJ2P3G_1tfv2vWf0GZ29HzgVn6zHAKTDPqvXHdPIsp86u7qYXXoCW6-tQ631OuqJ_k4Clmt8_OIZmfvJdD2fU05O7T4T41chKxMf5yzopO2i8489rD8UJYjEhD-HAZx3QtGxgLOn0HNk_f2GhQ_NaxCEZg_jSkZjZ48qYYw3WWzWw', 'html_attributions': ['<a href=""https://maps.google.com/maps/contrib/111937342551007470308/photos"">FiBL - Forschungsinstitut für biologischen Landbau</a>'], 'height': 1362, 'width': 1364}], 'opening_hours': {'weekday_text': [], 'open_now': False}}, {'icon': 'https://maps.gstatic.com/mapfiles/place_api/icons/generic_business-71.png', 'formatted_address': 'Doblhoffgasse 7, 1010 Wien, Austria', 'place_id': 'ChIJG0ZmEJQHbUcRNQhB4Z1K_fQ', 'geometry': {'location': {'lng': 16.3559234, 'lat': 48.2082933}, 'viewport': {'northeast': {'lng': 16.35598325, 'lat': 48.2084739}, 'southwest': {'lng': 16.35590345, 'lat': 48.2082331}}}, 'types': ['point_of_interest', 'establishment'], 'reference': 'CmRSAAAANcm2nN_eD0GgGpMQQTkZrkbSDz3OSbNFn56-rTiLCtFLeX6CV02ZhMRkWjDIxZqJIUuxUv4MQU_UL1r8OlLsW7dMAUDB6UkvUNdGbLCr6iOOl7v712GLKzUiW02XFgJaEhBGzQ3sNAcr_nbPdT8d1LYpGhTUz4GrOTE6MJxryO6kPXxMUVUjUg', 'name': 'Forschungsinstitut f biologischen Landbau Österreich FIBL', 'id': '2a1fdbcf42b09ea615a69da8972db69a66b2b50c'}], 'html_attributions': [], 'status': 'OK'}"
Forschungskommission SAGW,100000.0,"{'results': [], 'html_attributions': [], 'status': 'ZERO_RESULTS'}"
Franklin University Switzerland - FUS,65956.0,"{'results': [{'icon': 'https://maps.gstatic.com/mapfiles/place_api/icons/school-71.png', 'formatted_address': 'Via Ponte Tresa 29, 6924 Sorengo, Switzerland', 'place_id': 'ChIJB3auT5kthEcRN8kg8HtY6Hs', 'geometry': {'location': {'lng': 8.938819, 'lat': 45.997588}, 'viewport': {'northeast': {'lng': 8.93896715, 'lat': 45.99769224999999}, 'southwest': {'lng': 8.93837455, 'lat': 45.99755325}}}, 'types': ['university', 'point_of_interest', 'establishment'], 'reference': 'CmRRAAAA1we3IRKjObQG_U4FliEGbYDaw9a2SZ8cJRXcJhPKHBHAAIbAue8SNAhyxXmMNnXWy1LIYEyjCPqsVxcztZI8hB2ZPSDehbJwZaX1zyGjJ3lL0kefSsTdV0LTRILO7wxDEhB5ItvDPY0pGYHkhcKGgTXtGhRImsIvvbPn51JNekjqmC1eRl9PQg', 'name': 'Franklin University Switzerland', 'id': '91721675dff135c76299bccec92c457ede321a8e', 'photos': [{'photo_reference': 'CoQBcwAAAJHD_wQSe-nnH0DYlBzOkqx4x2MEqXkOkqy4N55i2MaZBm20lymoMhPmuoVkLXPxPh3WoLGz-KlcEv7rZ_E7YEtPldBgUeeMRehtatysHh72H6HsG1CEj2kNLYZloGMGiNSHv6WInfcTswNBwfCeynmDe0xU7L8H644nrVnpgR4pEhC06gNxtqM1S1bUtsS2j9_1GhS50qVEGzOuhg1SOtiY2OxLoEvRkA', 'html_attributions': ['<a href=""https://maps.google.com/maps/contrib/112294644087860732027/photos"">Hani El Azem</a>'], 'height': 2448, 'width': 3264}], 'opening_hours': {'weekday_text': [], 'open_now': True}}], 'html_attributions': [], 'status': 'OK'}"
Friedrich Miescher Institute - FMI,40229142.61,"{'results': [{'icon': 'https://maps.gstatic.com/mapfiles/place_api/icons/school-71.png', 'formatted_address': 'Maulbeerstrasse 66, 4058 Basel, Switzerland', 'place_id': 'ChIJEzGiHr-5kUcR2Xu4QiOZLeY', 'geometry': {'location': {'lng': 7.603559899999998, 'lat': 47.56774159999999}, 'viewport': {'northeast': {'lng': 7.603586249999998, 'lat': 47.5678655}, 'southwest': {'lng': 7.603480849999998, 'lat': 47.56770029999999}}}, 'types': ['point_of_interest', 'establishment'], 'reference': 'CmRSAAAAyFuYbi2WilMQyXFLvZ04Lx7fqaFBBtg73FIgtNaam4b91_gMyxeebJ2jc4HHYWADMRH8rhxM8cLM0BP2n_a5xKs00ivVSwySGCdgqKqZyfeXvqkv5OkkQxW8rl6dLiexEhBA_CKkpSDziCXtiW4X2SbCGhTIdMx76Cj32DEQFMQJVZfvHW0_TA', 'name': 'Friedrich Miescher Institute for Biomedical Research (FMI)', 'id': '37d4e1ecad53c7d856d41173ae76d5b5bf7e5f73', 'opening_hours': {'weekday_text': [], 'open_now': True}}], 'html_attributions': [], 'status': 'OK'}"
HES de Suisse occidentale - HES-SO,34162965.46,"{'results': [{'icon': 'https://maps.gstatic.com/mapfiles/place_api/icons/school-71.png', 'formatted_address': 'Route de Moutier 14, 2800 Delémont, Switzerland', 'place_id': 'ChIJB3zJ1NHnkUcRGJASnlQmxAk', 'geometry': {'location': {'lng': 7.3522363, 'lat': 47.3625918}, 'viewport': {'northeast': {'lng': 7.35224915, 'lat': 47.36267235}, 'southwest': {'lng': 7.352212149999997, 'lat': 47.36254895}}}, 'types': ['university', 'point_of_interest', 'establishment'], 'reference': 'CmRRAAAAxXrkcyIGf6TBKjCOZXDDzy27gML8hgJsSu3YyyRGkL51vUv39LAcvgZ1D9VpYdrt04iVc2-Hl5v4ZB_yEdOyYcxscYq7vn1a4lm0kxR92lVj5Tgn1Wl_i3OfL6o7xAx6EhD4L1ImNZsmFwy9mjA9wwBoGhTPtLAjDaSoiXAr0ZiaGNmlm9Bv8Q', 'name': 'University of Applied Sciences Western Switzerland', 'id': 'b20699ce9885bf29699ed23c002fe7ff19709927', 'photos': [{'photo_reference': 'CoQBdwAAAP1efE8i6n_bCEnXz-ijxCIQ21Yq--DPRg1tfBk_7SnvTVn3ncEfed2wJULpjNMEFQ0Op2qbF7JJ5ZymW3PRNwVw6BYAjDg9w2F6lwTuMQGdRMTsJZ2RTn95wM1_TIJneU2eQosaV9M7iAsarsWK7BX3To9OHFSflafYxn5nsQ8FEhCpPGftcocWNsfNvDNoIcYiGhSlyazZ4zaG62tTjkdjog0qCeGFUQ', 'html_attributions': ['<a href=""https://maps.google.com/maps/contrib/106959601937325305526/photos"">Oliver Weinrich</a>'], 'height': 2340, 'width': 4160}]}], 'html_attributions': [], 'status': 'OK'}"
"Haute école pédagogique BE, JU, NE - HEPBEJUNE",627380.0,"{'results': [], 'html_attributions': [], 'status': 'ZERO_RESULTS'}"
Haute école pédagogique du canton de Vaud - HEPL,1430686.0,"{'results': [{'icon': 'https://maps.gstatic.com/mapfiles/place_api/icons/school-71.png', 'formatted_address': '1014, Avenue de Cour 33, 1007 Lausanne, Switzerland', 'place_id': 'ChIJ2T1xp9YvjEcRCAewNdCIey0', 'geometry': {'location': {'lng': 6.6215937, 'lat': 46.5128571}, 'viewport': {'northeast': {'lng': 6.6219984, 'lat': 46.51322835}, 'southwest': {'lng': 6.6214588, 'lat': 46.51273335}}}, 'types': ['university', 'point_of_interest', 'establishment'], 'reference': 'CmRRAAAAke1Fd5qS7zVqmIjXJb29OtmbEXI0YBIYqRsC-mRxX775lBJRiLYM7P-Dgdt7zM7pAtmnwJERUxCWE9RDVuR8cfTeXkjwwZ9JNwMK7gQi_8PNnfBXWCfm7a-mU99WqkajEhAzLV1wBJL1_A7G4iLefosaGhT3cm-5dVvQU4MRDrZL-mgjF_kdCA', 'name': 'Haute école pédagogique du canton de Vaud', 'id': '57d5eb4cdc23aaed9db0d7e4acd35924d46f377e', 'photos': [{'photo_reference': 'CoQBcwAAAPmYS_-1b2qiSpnpsQtM9NTS2d3vPY7ilNUVtq8Wr3Q07US-lrRx7WtETTX2LCaiK0c1Ip5-lP_i6gRHZpEjxF96-o6GStUDFu-XmN6f2YWOc5jE_oJgRbYM98DGQKwBCcK8EVfWzIWzSpfDN2k-ah0W3iJYVDXeYEwOiyder3bzEhBKxbh6r59XOPRdHxZIwf7VGhQXghqKkbOWjvYoISD0yo7hDJs3Uw', 'html_attributions': ['<a href=""https://maps.google.com/maps/contrib/105442847659123589017/photos"">Haute école pédagogique du canton de Vaud</a>'], 'height': 1305, 'width': 2048}]}], 'html_attributions': [], 'status': 'OK'}"
Haute école pédagogique fribourgeoise - HEPFR,1547498.0,"{'results': [{'icon': 'https://maps.gstatic.com/mapfiles/place_api/icons/generic_business-71.png', 'formatted_address': 'Rue de Morat 36, 1700 Fribourg, Switzerland', 'place_id': 'ChIJsW6qPDdpjkcRPLwOH0-h2g4', 'geometry': {'location': {'lng': 7.159208400000001, 'lat': 46.8111769}, 'viewport': {'northeast': {'lng': 7.159904700000001, 'lat': 46.81129525}, 'southwest': {'lng': 7.157119499999999, 'lat': 46.81082184999998}}}, 'types': ['point_of_interest', 'establishment'], 'reference': 'CmRRAAAAuUV5rBpTrV-dWwHo-8RGgX2GWkr9R0pNuZp6o3Y7JtfcCgEDjJVNF1duQMnVYe35oUhGuoDQ2GlEz_MIfQ8eGrkwHkNT1vb10BnAT7OcL5_hDlW7i_HDt9nP0vlGdw6oEhDElhZBXf6kIfFJHAchBzKqGhRvyEhSQxSsmOKmt0X-ECPWZTYjYw', 'name': 'Pädagogische Hochschule (PH)', 'id': 'd9a303c1e6889b4649ec8426ca5e754aec841689'}], 'html_attributions': [], 'status': 'OK'}"
Hochschule Luzern - HSLU,10768116.36,"{'results': [{'icon': 'https://maps.gstatic.com/mapfiles/place_api/icons/school-71.png', 'formatted_address': 'Werftestrasse, 6002 Luzern, Switzerland', 'place_id': 'ChIJdbKYEqL7j0cRP0RN6HuJ5SI', 'geometry': {'location': {'lng': 8.314912, 'lat': 47.046681}, 'viewport': {'northeast': {'lng': 8.31505345, 'lat': 47.0472843}, 'southwest': {'lng': 8.31486485, 'lat': 47.0464799}}}, 'types': ['university', 'point_of_interest', 'establishment'], 'reference': 'CmRRAAAAu_mJrAjTVpD53amHk3EA_fmadmGTMMXdSKgRYXv5zIzV4cFfBaAOXme9g-aP7sbSACPlLGQuy3ZUTcXu78NNJKzIh2H-Njjp-02upB-WQFsVD-AhOm_5StzlTvbhjd_2EhA2GdOJ5y_gfKj9gq7FxuZ2GhRxbOpqEXJLVl8d7p1uS4WA7E9uew', 'name': 'Hochschule Luzern (Rektorat & Services)', 'id': '42ea172ffee831da83d0c91867d3f288b93bd470', 'photos': [{'photo_reference': 'CoQBcwAAAO5j0TTZcfgo83O-5PH9CNTEoOzgSIvMwS9zQbhH9dZTep2WTlroooJ-0HMdddw2BtYhpV7auUsOS2B9VFLe1FJCRb8jGGRYJkLZyY1dc6l_YOsNRS7aYBduOjgOLog2QmpBOV_GSbOGkbMniS8t9eCFrPXVnRJf6M-v8z2kFqknEhCzkXfF-dBOXVqjSt6qsBG6GhStZ0_MrjCNoq_hRH0PrO0FSLLgdg', 'html_attributions': ['<a href=""https://maps.google.com/maps/contrib/106852679859133811933/photos"">Hochschule Luzern (Rektorat &amp; Services)</a>'], 'height': 861, 'width': 1848}]}], 'html_attributions': [], 'status': 'OK'}"
Idiap Research Institute - IDIAP,22183105.2,"{'results': [{'icon': 'https://maps.gstatic.com/mapfiles/place_api/icons/school-71.png', 'formatted_address': 'Rue Marconi 19, 1920 Martigny, Switzerland', 'place_id': 'ChIJU3z_HDTIjkcR1zFyL-u2amg', 'geometry': {'location': {'lng': 7.084442999999999, 'lat': 46.109376}, 'viewport': {'northeast': {'lng': 7.084662099999998, 'lat': 46.10945709999999}, 'southwest': {'lng': 7.083785700000001, 'lat': 46.10913270000001}}}, 'types': ['point_of_interest', 'establishment'], 'reference': 'CmRRAAAAbAqWLZ5PK_w9NOC1QOWJ3GgqtsAl6fkQOfPVDv3SEknzxAwqlGicazGCSRLnjq9eclqpi7mLLRR6VXiiY-L5AJCuUU395-oSZkK9gBqVEwkf9PlKe1Hadrawi1rnw8TVEhB1dZ6PsWVvIgWdAGzvm5OXGhRdB-5JFveqfh2t4kuvjfjtt4OiAQ', 'name': 'Idiap Research Institute', 'id': '1c27c701a26ebef434f3c1cd5640c1f5ee1bac5a', 'photos': [{'photo_reference': 'CoQBcwAAAAKTwh3gNO9s4QbTSVbfTr2vOikjtBvZhdt_eTs78kn8XyTW4m6Osw9GCpwnmId80nOrTMcQdPKQcSysmixR-v4eSw7NHezTzReNbMN4BAEI9IMYVKhTbOO9REbLbVFMl0iYNH83Dq-Uf9I6184cQBDSIeC6plaRTWXNHtgV56HGEhC3LD4z_QIYlIwLXb3LzNCpGhSRJ__2B-jiI9vtJv6HhqTcff8ANQ', 'html_attributions': ['<a href=""https://maps.google.com/maps/contrib/114502675013547321627/photos"">Idiap Research Institute</a>'], 'height': 401, 'width': 401}], 'opening_hours': {'weekday_text': [], 'open_now': True}}], 'html_attributions': [], 'status': 'OK'}"
Inst. Suisse de Spéléologie et Karstologie - ISSKA,624819.0,"{'results': [{'icon': 'https://maps.gstatic.com/mapfiles/place_api/icons/generic_business-71.png', 'formatted_address': 'Rue de la Serre 68, 2300 La Chaux-de-Fonds, Switzerland', 'place_id': 'ChIJ_yQCGDj7jUcR8jk3w5ZQcjY', 'geometry': {'location': {'lng': 6.823160199999999, 'lat': 47.09975319999999}, 'viewport': {'northeast': {'lng': 6.823401549999998, 'lat': 47.09981039999999}, 'southwest': {'lng': 6.82307975, 'lat': 47.09958160000001}}}, 'types': ['health', 'point_of_interest', 'establishment'], 'reference': 'CmRRAAAAZerAIQ7klgBE3Jt8kpZKFFp3m8sL3GoHkUu9sewwxYAmLUp5ID8n-AMKLzv1DEfGfCG8yvyuQU-vqqO7yrP9PPQzFXNFAXch6q8lDjGPEAjpoSW2YYmehnPYtl1Vc5gHEhBZreIJRqKsccaEQIiLQ6IpGhSEuBNNQhuL0pJEgBlHaCHTJ-TfSw', 'name': 'Institut Suisse de Spéléologie et de Karstologie ISSKA', 'id': '32e857715c99189d9af976c6ef931765e344d59e'}], 'html_attributions': [], 'status': 'OK'}"
Inst. de Hautes Etudes Internat. et du Dév - IHEID,38864231.6,"{'results': [{'icon': 'https://maps.gstatic.com/mapfiles/place_api/icons/school-71.png', 'formatted_address': 'Maison de la Paix, Chemin Eugène-Rigot 2, 1202 Genève, Switzerland', 'place_id': 'ChIJJ5vlO-JkjEcRuRHZyflX0XU', 'geometry': {'location': {'lng': 6.143691599999999, 'lat': 46.22091630000001}, 'viewport': {'northeast': {'lng': 6.143788799999999, 'lat': 46.2233646}, 'southwest': {'lng': 6.1434, 'lat': 46.22010020000001}}}, 'types': ['university', 'point_of_interest', 'establishment'], 'rating': 4.5, 'reference': 'CmRRAAAAIYItNKddNMyKjqLY56URnIlcEFjkQGSiFc-NOeKYCGMExf5I4NCK_e_MPH4r01Zij-j0Nf3r6fPAIF8LGbbrkfdWQRAapAZxMxUPNFxHOiAjE0pGq_kEb7jnmrBNCfTOEhBTD5cGBBsp48Rv_G9NwcByGhSbJeexZUHMhGx8PPucwV_lHi8Slw', 'name': 'L’Institut de hautes études internationales et du développement', 'id': '658bbb3b4664bf252e52a8d0c4741f8b72a3a7c4', 'photos': [{'photo_reference': 'CoQBdwAAAO0E_yd1qD_9DutelD1T4Vme3Atzg4lZjMlEoy28ymmPBTD-ICmxfvZgse46qQhApx_OzhacdyHJ2-BpoIZlUw5CgnxW0MVG3-wVoQHZArR2AMQbELW4lZySF9Y8OKzh4rmKEtw2kJ33XDgsQ5LsSMM3Gy_uOeWbjs5GWfn0P6QrEhBkK21Y1YYR6Z_ffD8jquJHGhS4JNkVTJLqGiMlId4uzTpuXvdo6Q', 'html_attributions': ['<a href=""https://maps.google.com/maps/contrib/104310603386743706959/photos"">Seva Petrov</a>'], 'height': 3456, 'width': 5184}]}], 'html_attributions': [], 'status': 'OK'}"
Inst. universit. romand de Santé au Travail - IST,6882729.85,"{'results': [{'icon': 'https://maps.gstatic.com/mapfiles/place_api/icons/generic_business-71.png', 'formatted_address': 'Route de la Corniche 2, 1066 Epalinges, Switzerland', 'place_id': 'ChIJEQJjpzcujEcRix7_L4mCcy8', 'geometry': {'location': {'lng': 6.661678900000001, 'lat': 46.5432643}, 'viewport': {'northeast': {'lng': 6.66186955, 'lat': 46.5433431}, 'southwest': {'lng': 6.661615350000001, 'lat': 46.54302789999998}}}, 'types': ['point_of_interest', 'establishment'], 'reference': 'CmRRAAAArYT8jnfzGrxxgN28V4BW0-tNB6RcE63rvPwugHhl2QPPsyH7rrH2GegO0rhaVrbZRKIR8Un-t2z88jhhD6rLZtw_-KFEZtx12g4lTlEckRvWQRVEMPXrQP1-B-1KgY-7EhB8Va1FOvTC4aRvTjraGVplGhTftIiB-WsZE2mxXZyHjQt_dmFFXw', 'name': 'Institut universitaire romand de santé au travail', 'id': 'bbc86f94d81549f293c03627a9fb4adb3a2943d6'}], 'html_attributions': [], 'status': 'OK'}"
Institut Universitaire Kurt Bösch - IUKB,1977340.0,"{'results': [{'icon': 'https://maps.gstatic.com/mapfiles/place_api/icons/school-71.png', 'formatted_address': ""Chemin de l'Institut 18, 1967 Bramois, Switzerland"", 'place_id': 'ChIJ______PejkcRyKqkB77Jo4s', 'geometry': {'location': {'lng': 7.3987243, 'lat': 46.2301033}, 'viewport': {'northeast': {'lng': 7.39879375, 'lat': 46.23021715}, 'southwest': {'lng': 7.39870115, 'lat': 46.23006535}}}, 'types': ['university', 'point_of_interest', 'establishment'], 'reference': 'CmRSAAAAuTAOnPgybR6Ck5_T8TE87S4tL_Skg6PxJOK5YyFT2tokoy0asM-Ve9w1uYKhMD2HVKiRH7CgQlJquYtET_e-sHDl7_MHE2CnlSyeG2E4Lx15WNvmYJ3QTLYgVu7LuKn0EhAqFcqIncjdZQDhELn5dQjJGhR1pFhJdA3Xd3SmW6W4lG0jMqZsrg', 'name': 'Institut Universitaire Kurt Bösch (IUKB)', 'id': '3dc77b6fab79c7123f263e77b0ea431dc6c488f1', 'opening_hours': {'weekday_text': [], 'open_now': False}}], 'html_attributions': [], 'status': 'OK'}"
Institut für Kulturforschung Graubünden - IKG,1219681.0,"{'results': [{'icon': 'https://maps.gstatic.com/mapfiles/place_api/icons/generic_business-71.png', 'formatted_address': 'Reichsgasse 10, 7000 Chur, Switzerland', 'place_id': 'ChIJRbTO_3nHhEcRccH8jxeyNaM', 'geometry': {'location': {'lng': 9.533924299999999, 'lat': 46.85109979999999}, 'viewport': {'northeast': {'lng': 9.534011700000004, 'lat': 46.8511063}, 'southwest': {'lng': 9.533828499999997, 'lat': 46.8510939}}}, 'types': ['point_of_interest', 'establishment'], 'reference': 'CmRSAAAAjFyQwG5WQSPzK9YCamNOqBw8VSBqCTBbP_Lg9N81ezsv7ZIEE0-M2qprby41bAckUe4uaIGEimBqdSvm1yGCcOVVzFqKGb2JlBij2zTYNOlaUT68K4Czf85LZ5dgjc3hEhBF4Xvf9idg32O2oeesfl2ZGhTyFMdglCGdGwBhQCQojym8cBxRAQ', 'name': 'Institut für Kulturforschung Graubünden', 'id': 'ca936e8dc96bb3fceff4706820bd5fcee0790f1b'}], 'html_attributions': [], 'status': 'OK'}"
Instituto Ricerche Solari Locarno - IRSOL,951238.0,"{'results': [{'icon': 'https://maps.gstatic.com/mapfiles/place_api/icons/generic_business-71.png', 'formatted_address': 'Via Patocchi 57, 6600 Locarno, Switzerland', 'place_id': 'ChIJe_OFayjIhUcRQtZWnA20H1c', 'geometry': {'location': {'lng': 8.789081999999999, 'lat': 46.1768822}, 'viewport': {'northeast': {'lng': 8.78917335, 'lat': 46.17692195000001}, 'southwest': {'lng': 8.789051549999996, 'lat': 46.17676294999999}}}, 'types': ['point_of_interest', 'establishment'], 'reference': 'CmRRAAAAZVqNF1pwCiynuJJ4vAIJiFKyrmrESZl9Dc1hGGGXFXGcfpxwG0tkLoiYByfUizNi-t73J_-DCGykxVzDR07mfbmJ9Pt0zRXlV9yoDYZ3S6RFRd1LicLhekn3tXAdfsuFEhAGYB0aZzsXfuWmmqWBUtQaGhT7hI99-nlCPnQQeyhHmRQsy08dEA', 'name': 'Ricerche Solari Locarno', 'id': '5e87838e0cf582b9d925d55ed014fcdb8b8c136a'}, {'icon': 'https://maps.gstatic.com/mapfiles/place_api/icons/school-71.png', 'formatted_address': 'Via ai Monti 146, 6605 Locarno, Switzerland', 'place_id': 'ChIJ44EPQy_IhUcRI7ULkEjnJeI', 'geometry': {'location': {'lng': 8.787462, 'lat': 46.17265699999999}, 'viewport': {'northeast': {'lng': 8.787482399999998, 'lat': 46.17273950000001}, 'southwest': {'lng': 8.787407600000003, 'lat': 46.1726247}}}, 'types': ['point_of_interest', 'establishment'], 'reference': 'CmRSAAAA0-QUHQurJvAdA_Ntic_6nkqLZoQmk8L8gauwcs8OpyGPmiEluuAZUnwptG7LKYEfN7f9z2xBI5UWgLScD3DZS5jKIhA70PXK34PXWTNnjv36FYo9TigTcJCZqHi1AIfJEhAB462g5e3DOKPAK1j7rY7jGhSpWJW9FLNmyxlAJg-c2n1ye3_GUg', 'name': 'Specola Solare Ticinese', 'id': '72d7eebc7083c6fffacad07e81ea94e4d60254f0', 'opening_hours': {'weekday_text': [], 'open_now': False}}], 'html_attributions': [], 'status': 'OK'}"
Interkant. Hochschule für Heilpädagogik ZH - HfH,2839872.0,"{'results': [{'icon': 'https://maps.gstatic.com/mapfiles/place_api/icons/school-71.png', 'formatted_address': 'Schaffhauserstrasse 239, 8057 Zürich, Switzerland', 'place_id': 'ChIJJ12QjX4KkEcRxktlnhgJZIs', 'geometry': {'location': {'lng': 8.5471186, 'lat': 47.4032152}, 'viewport': {'northeast': {'lng': 8.547336549999997, 'lat': 47.40327474999999}, 'southwest': {'lng': 8.54704595, 'lat': 47.40303655000001}}}, 'types': ['point_of_interest', 'establishment'], 'reference': 'CmRSAAAABL7l1AU8lxduyy34JDzpcEIkDfeY0koNcGifTvRjFR3ZnQxRN2fap4CLedeCz8CYfEV5zgAFrF7JOg7y3SPnDf_sLpO4IO6JwN2oiqlU5L-Y1hS9hzDyrx6uBLrgjCVAEhDaUkRxNFiqHj-4cjFbDg4aGhQoobuLdajR-ADjiILmELoDL7Crxw', 'name': 'Interkantonale Hochschule für Heilpädagogik (HfH)', 'id': 'ff57a44364eb29f28d61d24ca3cef80f32ffb755', 'photos': [{'photo_reference': 'CoQBcwAAAKLcC65abMb0F3Gipz14FAALZllf8FqAKAefEKWML6Y2mnrUpx8H8sdVCBU7j6vyllNKx0T9AR-Wijs46jrU-CAecWndf8caBT-2_uB31OScvjdiUOiQCC5muR2snLStT_YO03BfNr0G8K52gdO4baF3-kGNZbY0XhI2wynVEkv5EhBJ7Xgbt-PhRavYyQYFKSbuGhRp8I2-STZ1oork41f9MiyY_jSz3A', 'html_attributions': ['<a href=""https://maps.google.com/maps/contrib/101104465586200623060/photos"">Interkantonale Hochschule für Heilpädagogik (HfH)</a>'], 'height': 2048, 'width': 1366}]}], 'html_attributions': [], 'status': 'OK'}"
Istituto Svizzero di Roma - ISR,141000.0,"{'results': [{'icon': 'https://maps.gstatic.com/mapfiles/place_api/icons/generic_business-71.png', 'formatted_address': 'Via Ludovisi, 48, 00187 Roma, Italy', 'place_id': 'ChIJT9xDbqphLxMRob4rmM9_AHw', 'geometry': {'location': {'lng': 12.4876114, 'lat': 41.90634319999999}, 'viewport': {'northeast': {'lng': 12.4882867, 'lat': 41.9065256}, 'southwest': {'lng': 12.4873863, 'lat': 41.90628239999999}}}, 'types': ['library', 'point_of_interest', 'establishment'], 'reference': 'CmRRAAAAmfllNInRGIbSbr_EubNc4KxIneh577hwzKb_IrBNhcyINa-kwCsh8tggtJ-bHKrJEDPzSgITyyfrxyTgBwIwAlJYKGIbupIyoc9hnWOOlotLIKVPgZ3volLkbjQeJvimEhCS201qHgDZ0-hRhBP6v1q4GhRibNwvTMmMpitMfsGDipI8JgWovw', 'name': 'Istituto Svizzero di Roma', 'id': 'b1ea0672129c5a9bf09b604a44dbb3d5e4780a4c', 'photos': [{'photo_reference': 'CoQBdwAAAIVSLwcvfKSPwh9VeTlbV5Xnas1JLQWaaCEBHpnpHaDYsblv8q6a1nqDZl8es0GpUBseoC3c3IMrepcCsghKa3lH4CpWkIvACJ6vNAau84VbTpbC8Q0oqp0rMSpz81jp_S2Uhsqcg-0uPylP9rjBsI5mP9lSWHbywKTHAaauQZJUEhBhM0K1sFy1JVwe0E8-_geSGhT6Vxeza4zAxLvM4mZOMdr_R3AYGg', 'html_attributions': ['<a href=""https://maps.google.com/maps/contrib/118384294178312667815/photos"">Paolo Lai</a>'], 'height': 4160, 'width': 2340}]}, {'icon': 'https://maps.gstatic.com/mapfiles/place_api/icons/school-71.png', 'formatted_address': 'Via del Vecchio Politecnico, 3, 20121 Milano, Italy', 'place_id': 'ChIJAfwRO7fGhkcRsGd6wmUy_CU', 'geometry': {'location': {'lng': 9.1965817, 'lat': 45.4723646}, 'viewport': {'northeast': {'lng': 9.1966088, 'lat': 45.47239299999999}, 'southwest': {'lng': 9.196508399999997, 'lat': 45.4722878}}}, 'types': ['university', 'point_of_interest', 'establishment'], 'reference': 'CmRRAAAA6isGq3Y6_IQP0X9A3xoCfTU8qsvwh7I53RuxhuwnGTrwFEdXL0JU9IAgk0ny0v0wBSrULSJF97yrw_oJ--saQPJCKRix9wY9p-hd0wXpgmwS2CRp4SM_AizqyDt9guYXEhB3E5Wgn2JH6eSg2pylNyXPGhTQkIod4beYXwFAB3Kz3mybIN1OFQ', 'name': 'Istituto Svizzero di Roma', 'id': '91dde786301e44318d46cd64e972167829a13aa9'}, {'icon': 'https://maps.gstatic.com/mapfiles/place_api/icons/school-71.png', 'formatted_address': ""Campo Sant'Agnese, 810, 30170 Venezia, Italy"", 'place_id': 'ChIJ36Vad9KxfkcRaZjbAQeviLI', 'geometry': {'location': {'lng': 12.3347282, 'lat': 45.4306841}}, 'types': ['university', 'point_of_interest', 'establishment'], 'reference': 'CmRSAAAAsT2Td9HTObtpHBJlYUT_4Muy7pZ3KSHQteUgXNP3HyPuvCz4xRHrGXrDHx-jhhVYJrPwfMWSxaE-rw3xh7rz6ykj0AMD-NU3_I1yypkONjCYFVBTHZrWVMLcnBFp7xifEhDk-m70SRpqQZP_C-YIMHAqGhRR_-t3oRhzRdB5G0HOErnWcQYy3w', 'name': 'Istituto Svizzero di Roma', 'id': 'f323ea1aef3ec166272053818f880bb0d8122697', 'photos': [{'photo_reference': 'CoQBcwAAAB-2U6vnVPtKBs0fPs3eboHP0cUDZrNrzjrrPFhNusUhqLopnCtRE8EqMFlS5AyGm4N8qIgKGO5Qa13e0xgPCZVRlzKcMZVP3la3peFN5-2KvDC9JBQJ58ZBAEVmHaN_OTA3y0n9_MOBQ6S-C1EAMowufeFCAUZBJP4felHHecmGEhAN9fS0uptDGA3e9eBc5_S8GhQ6Xvmpc5cy4U9qUP_tkk9DnM-Ztw', 'html_attributions': ['<a href=""https://maps.google.com/maps/contrib/105738140686397412309/photos"">Pavel Pekhtelev</a>'], 'height': 1365, 'width': 2048}]}, {'icon': 'https://maps.gstatic.com/mapfiles/place_api/icons/generic_business-71.png', 'formatted_address': 'Via Marcello Malpighi, 14, 00161 Roma, Italy', 'place_id': 'ChIJYZQATwthLxMRoc3VXlWcCvo', 'geometry': {'location': {'lng': 12.5062957, 'lat': 41.9096057}, 'viewport': {'northeast': {'lng': 12.50643535, 'lat': 41.90962050000001}, 'southwest': {'lng': 12.50624915, 'lat': 41.90956129999999}}}, 'types': ['point_of_interest', 'establishment'], 'reference': 'CmRSAAAAcAEqcS3ZPXD23Yfl1gaYW6XRZnUtThdlpfGGhnyJhcq4fMjHi7ZdqfGmGT9BvoKLql8bX80426sxKleqj5DL8xZmusBFoi8wXd_HjiaeMyrmMT_UDqBB0Gx9ZtBA_BkAEhDDzEdVxbz0DvLeAzl5J3uEGhQogL_wMKNF-RNdWilPMRFJh_p8gQ', 'name': 'Scuola Svizzera di Roma', 'id': 'e9db6308935dfb25aaa6ba6806782f7fbd36b45a'}], 'html_attributions': [], 'status': 'OK'}"
Kantonsspital St. Gallen - KSPSG,15034105.0,"{'results': [{'icon': 'https://maps.gstatic.com/mapfiles/place_api/icons/doctor-71.png', 'formatted_address': 'Rorschacher Str. 95, 9007 St. Gallen, Switzerland', 'place_id': 'ChIJT54riFkem0cRTTcq6SNYUI4', 'geometry': {'location': {'lng': 9.3868891, 'lat': 47.4303373}, 'viewport': {'northeast': {'lng': 9.387133449999997, 'lat': 47.4314191}, 'southwest': {'lng': 9.386807649999998, 'lat': 47.42997669999999}}}, 'types': ['hospital', 'point_of_interest', 'establishment'], 'rating': 3.9, 'reference': 'CmRSAAAAhDgJ7ICa5CznMxiz54J0id5sXW3D1riNpHMpPpZwT2Y-X1q0SApjw0_2FnfiafCVjcwzpld1VOK1Ium0s2wBlTulHRCUHzagx3Ov2PkldVpdCDrOx4uik4eTBR2zUl9_EhD3hJyY1UX_7ZcrpT1I8OAmGhSd7KJN6na0e_UjhAYWdK66a6L8MA', 'name': 'Kantonsspital St.Gallen', 'id': '81152cfbcd0c8fa1c17a9be0c451048cd3cefdcf', 'photos': [{'photo_reference': 'CoQBdwAAAF4HgU8YEm4sNp-7wVRnCTqpYVZrzPNXBDqFWDqc7DZ0O5_sJ5kQTaOmO-SrIjAxaTl7e_pmR3hdcp0uEznGu4lOG5t2Xj7jL4SIZUqmYt9J8U043-SvcLZ--wBdWMcJlPxiXovIfQWXYDuiZh5AOou1hN9l5HxzlNdYf1pwEE-iEhAUS1il50QclvktbamEmEJfGhSLCjJf-z8f-Nm5TRtewwAxjWstbw', 'html_attributions': ['<a href=""https://maps.google.com/maps/contrib/117015793322983353455/photos"">Patrick Steinkuhl</a>'], 'height': 3898, 'width': 5195}]}], 'html_attributions': [], 'status': 'OK'}"
Paul Scherrer Institut - PSI,115268968.87,"{'results': [{'icon': 'https://maps.gstatic.com/mapfiles/place_api/icons/school-71.png', 'formatted_address': '5232 Villigen, Switzerland', 'place_id': 'ChIJLUxr1hlqkEcRMwOOImSblh4', 'geometry': {'location': {'lng': 8.229908, 'lat': 47.53857199999999}}, 'types': ['point_of_interest', 'establishment'], 'rating': 4.5, 'reference': 'CmRRAAAA_P5_x5x19ycZnAqYoyHbcQGhXP0uODruoAhiSO7OgrWdC61Ing2hhYJIAKYYE7Vw82sPkS8COL_Ih1KuS-0ThZcIGedIPygfyPs5iX10u22M_IL9oGsWZb0Fnd88vI7pEhDqLaWMSmWnesVzds0d09QDGhTNkEd3Wu2pvuIj_NIUhRbxJ_YqKg', 'name': 'Paul Scherrer Institute', 'id': 'dc8eb0121bc864d415e3c95935b19d0dc1d6c043', 'photos': [{'photo_reference': 'CoQBdwAAALnP_eTqxNM-2H5BVJhdXY5xROM8slgz5ouRddCOvsUUV0XPEfTnxKisq7XOXF9GR_u7l6WLkFL_qhtwcURs1_cDmXRkD61Im9q-IYDlUR7D_Z6nLauiIqZXjzp2Z9hTeM7kt0r3uj7Rpp-Ymc0bkE6RrOEPpYkw-srCs7PEBy3wEhDh6Cq3QkFO6eHi3jyzZMcfGhT8L-pvk14fGxjvXcUPkTZGxfh4kA', 'html_attributions': ['<a href=""https://maps.google.com/maps/contrib/108834217131474200489/photos"">Paul Scherrer Institut</a>'], 'height': 400, 'width': 401}], 'opening_hours': {'weekday_text': [], 'open_now': True}}], 'html_attributions': [], 'status': 'OK'}"
Physikal.-Meteorolog. Observatorium Davos - PMOD,12098436.0,"{'results': [], 'html_attributions': [], 'status': 'ZERO_RESULTS'}"
Pädag. Hochschule Tessin (Teilschule SUPSI) - ASP,159317.0,"{'results': [], 'html_attributions': [], 'status': 'ZERO_RESULTS'}"
Pädagogische Hochschule Bern - PHBern,1990389.6,"{'results': [{'icon': 'https://maps.gstatic.com/mapfiles/place_api/icons/school-71.png', 'formatted_address': 'Fabrikstrasse 8, 3012 Bern, Switzerland', 'place_id': 'ChIJXf_LrKE5jkcRflRxU18QSGY', 'geometry': {'location': {'lng': 7.422682999999999, 'lat': 46.9522372}, 'viewport': {'northeast': {'lng': 7.422968149999999, 'lat': 46.9522749}, 'southwest': {'lng': 7.422587949999999, 'lat': 46.95212410000001}}}, 'types': ['university', 'point_of_interest', 'establishment'], 'reference': 'CmRRAAAA19gjeWNzygW4rf-y6DKN55bVbqSsKQXC0QuR-Mt5gi0weN1vQeNJPCPlEPuL4dNBBqLcM2QkhrVIkBJmuq900ESrH6iGMVnHAxvr5l24iSFzeQoRxfLABWKatT-JKoLeEhAxtdIgvAjzsgWHRJkGtg7hGhQDMPq6F3mYcdW61fuuudtKZfgp5w', 'name': 'Pädagogische Hochschule PHBern', 'id': '7e2ada519d7af4b3e2eb915839f76616041fd0f5', 'photos': [{'photo_reference': 'CoQBdwAAAKlqM1uKKz3PNdOJpS0GrlF9vAQvQWCtL84Vvjs5-5BUwkeuQi6Lq83n5zDpLYZU6aj1y8Y-LU6KEtwDI3m1vT5_wq5F0Y3-HGyVQF9X0FwoHUzGTbn1oQZEyTBxoETXPy8AwuS_0kMQTdpWSXvoGTFv9-m0C58GV-vxpabBfMjiEhCuw18cN7K-sICds--i-SFaGhRZrg-SBa4A_ro9FByS0aHWHJ_9XQ', 'html_attributions': ['<a href=""https://maps.google.com/maps/contrib/102473141840701466586/photos"">Svend Nielsen</a>'], 'height': 4032, 'width': 3024}]}], 'html_attributions': [], 'status': 'OK'}"
Pädagogische Hochschule Graubünden - PHGR,614613.0,"{'results': [{'icon': 'https://maps.gstatic.com/mapfiles/place_api/icons/school-71.png', 'formatted_address': 'Scalärastrasse 17, 7000 Chur, Switzerland', 'place_id': 'ChIJawx4W5DHhEcRTeEE5gFvg8U', 'geometry': {'location': {'lng': 9.536720899999999, 'lat': 46.8669842}, 'viewport': {'northeast': {'lng': 9.537927350000002, 'lat': 46.86763969999999}, 'southwest': {'lng': 9.536318749999998, 'lat': 46.86676569999999}}}, 'types': ['university', 'point_of_interest', 'establishment'], 'reference': 'CmRSAAAAjdNgmLrSsYNm5sH7OoA_k8tpIySKaPGlh7BB_PZhtt0SlpTo1h4tnWkcmAtlzIJMWYits2JMmUbDDiIyGy-1xSzK0Przgg4oXVHcTw3i27insdt0XD_6D_P27ig9EUG0EhAS7YzNxo8VrgFTkgiHPkGbGhS_nHjO9mMeJayCCl1TbAbTPkhDUw', 'name': 'Pädagogische Hochschule Graubünden (PHGR)', 'id': 'ce3ef2810434778d2af1cbd0fb56af70cd5826ba'}], 'html_attributions': [], 'status': 'OK'}"
Pädagogische Hochschule Luzern - PHLU,1979281.0,"{'results': [{'icon': 'https://maps.gstatic.com/mapfiles/place_api/icons/school-71.png', 'formatted_address': 'Pfistergasse 20, 6003 Luzern, Switzerland', 'place_id': 'ChIJbwh3CZj7j0cRoo4D_Z1CfNs', 'geometry': {'location': {'lng': 8.3023319, 'lat': 47.0510453}, 'viewport': {'northeast': {'lng': 8.30237445, 'lat': 47.05106855}, 'southwest': {'lng': 8.302204249999999, 'lat': 47.05097555}}}, 'types': ['university', 'point_of_interest', 'establishment'], 'reference': 'CmRSAAAAIFTEd7Xrezy2P4bmzq448AixwopxPUnVkDILvA6aQhnObKSu5C0QKBwAa53gKJxpsPK2PutXJleMXxOc-uSA_j7Nhg7HwZ2p-uQfOZ688i9jhBRz_R_g0yvqlxxeRKfEEhAvVCBSa9hWBkpRHQ-a-Ay_GhQszHMInQaxXdFixuUnX6Sl76mG6w', 'name': 'PH Luzern', 'id': '73fb9ee3d91443f7a6967df681f1909b576743e3', 'photos': [{'photo_reference': 'CoQBcwAAADlZI3-dLk3ZLDc0B6-SsepwvM8nL8ODd9mIwJHlAbVXiGddahGdpxUBTwSMS-FmxqZ-NVfZTxNDPT6vQBSr-DXbBvtVgAopjkOBOlJ7AIFA0-BxtyWCYycTVVkz7CC6L4uGB2ZuWrDMiBz8VgV4Z13WkAfdsZoBLpMRSZpWJTWGEhCPKsbhoaFRoFnvS-Qd4wdPGhTRYE_FJgyep4vdiOIgwk0Ct31lbQ', 'html_attributions': ['<a href=""https://maps.google.com/maps/contrib/109549956731042667182/photos"">PH Luzern</a>'], 'height': 1365, 'width': 2048}], 'opening_hours': {'weekday_text': [], 'open_now': True}}], 'html_attributions': [], 'status': 'OK'}"
Pädagogische Hochschule Nordwestschweiz - PHFHNW,3476142.0,"{'results': [{'icon': 'https://maps.gstatic.com/mapfiles/place_api/icons/school-71.png', 'formatted_address': 'Von Rollstrasse 10, 4600 Olten, Switzerland', 'place_id': 'ChIJt9J5wzMwkEcRgWnc5loV14I', 'geometry': {'location': {'lng': 7.9078154, 'lat': 47.3480153}, 'viewport': {'northeast': {'lng': 7.9081076, 'lat': 47.34915904999999}, 'southwest': {'lng': 7.907717999999998, 'lat': 47.34763405}}}, 'types': ['university', 'school', 'point_of_interest', 'establishment'], 'rating': 4.4, 'reference': 'CmRSAAAAMqtKiGb0S-KO-X4JRRUPsGvswOaTZIy8xkJ8aS-Pdh2D4A1lV92QXafVruBEuhJykF4cgvt_TTlf78lddswTsll5pFKdMkkqSfEazTY3kmF7xOLTeRleQAigm9k9VhhiEhAEw6z3ZJlX7P0aZ4klYdzMGhSj7DUx_QUWJ4SvdmyrVWrYchQFVQ', 'name': 'Fachhochschule Nordwestschweiz', 'id': 'f33f3f662433e7e362d8ca55ccd2473f50070aed', 'photos': [{'photo_reference': 'CoQBcwAAAC266CFIlfP9PA5yi6JNCwX-ebufgos84BxwyXw9Qsv5VQBBwOXtdjzS_-T0hafsijPPySHhGjHs8nbnm7ZEDvITNaJa3zm7cSqAAUmxo53w22ke381hn57PsLKF315Gi1NhBH2x1wX5pfZCdp_RlIJoGEQ82lCeBurxa4J0agBgEhC06-v0T2_bqRe87lMjk3QJGhS-EN4VCEV9AfwzNQjhqS6bQiT8mw', 'html_attributions': ['<a href=""https://maps.google.com/maps/contrib/100488464602365329034/photos"">Luca Gaffuri</a>'], 'height': 3622, 'width': 5434}]}, {'icon': 'https://maps.gstatic.com/mapfiles/place_api/icons/library-71.png', 'formatted_address': 'Benzburweg 30, 4410 Liestal, Switzerland', 'place_id': 'ChIJg0pIAFvKkUcR6FdK1YcZdTw', 'geometry': {'location': {'lng': 7.740442199999998, 'lat': 47.4753062}, 'viewport': {'northeast': {'lng': 7.740475999999997, 'lat': 47.4759371}, 'southwest': {'lng': 7.740340800000001, 'lat': 47.47509590000001}}}, 'types': ['library', 'point_of_interest', 'establishment'], 'reference': 'CmRRAAAAvxcENpotG3nQErA23KBvddDctBSzQnzgByvTtcBCoWAiOa1gBDoPynGZai-rHeCLMfeJWzbCUcsPUIKKmyIpjNpssfstdTRqg_jP60Q-2rMA3aWSutBkhLHQ_yWDm5G3EhCj8znCdcwc6FYJzYCcFzHeGhQzjkTX9UwsX1353Czpega3cOSK7w', 'name': 'Fachhochschule Nordwestschweiz Pädagogische Hochschule Bibliothek', 'id': '5c8b09d6488ee60eedf7b26fc3e9f5122e9ee0ea', 'opening_hours': {'weekday_text': [], 'open_now': True}}, {'icon': 'https://maps.gstatic.com/mapfiles/place_api/icons/school-71.png', 'formatted_address': 'Steinentorstrasse 30, 4051 Basel, Switzerland', 'place_id': 'ChIJzS71w1K4kUcR5kpdMoAOf6s', 'geometry': {'location': {'lng': 7.587990800000001, 'lat': 47.551427}, 'viewport': {'northeast': {'lng': 7.591969849999999, 'lat': 47.55198810000002}, 'southwest': {'lng': 7.586664450000001, 'lat': 47.54974369999999}}}, 'types': ['university', 'point_of_interest', 'establishment'], 'reference': 'CmRSAAAAMIAyu99lxiFitjVRTLrBSR5_e7Hw8IAmFyg5jZ1SijhVvRiMHBQMfcIBIRNkwtveWpDG9fXY74azqbW-DKkJO6WRgyH_nDjxcA3h07caX5jOQ6VablYTmL2JKZp4qpXPEhC2GTD8kxtdMXAErrMgP-m5GhSFEOjIMSxd0oolwJ2XmNgVOM0zRA', 'name': 'Fachhochschule Nordwestschweiz Pädagogische Hochschule Institut Spezielle Pädagogik und Psychologie', 'id': '7b5badbe0cd24a21bc6f0b15e210b1c70101cf82'}, {'icon': 'https://maps.gstatic.com/mapfiles/place_api/icons/generic_business-71.png', 'formatted_address': 'Elisabethenstrasse 53, 4051 Basel, Switzerland', 'place_id': 'ChIJW43acU24kUcR02xDAPSqNAM', 'geometry': {'location': {'lng': 7.590675000000001, 'lat': 47.5502902}, 'viewport': {'northeast': {'lng': 7.590722200000001, 'lat': 47.55038200000001}, 'southwest': {'lng': 7.5905334, 'lat': 47.5502596}}}, 'types': ['point_of_interest', 'establishment'], 'reference': 'CmRRAAAALPts7YT2mob9DXrlKzzQ9CayAXdbRZHPGxp-5NapMOE9VhccxjNjZnCNPf2kYhS2w8KNB3Kx9IYpreBi2jjs0gZ3K-Ru27ZsLdBQm6SFav0Q9qi3t-Of-ptuufwp28-VEhA43TEecfudxdPgXCYx6NIQGhTTAhXrleHFNVFhXeZ0GduI_7dNIA', 'name': 'Fachhochschule Nordwestschweiz Pädagogische Hochschule', 'id': '7e0214a856f9bc3390fba2a9781925739a0d6eec'}, {'icon': 'https://maps.gstatic.com/mapfiles/place_api/icons/school-71.png', 'formatted_address': 'Schulthess-Allee 1, 5200 Brugg AG, Switzerland', 'place_id': 'ChIJlfsPLrlqkEcRX2bbrzEglrY', 'permanently_closed': True, 'geometry': {'location': {'lng': 8.2072647, 'lat': 47.4844155}, 'viewport': {'northeast': {'lng': 8.207379, 'lat': 47.4844498}, 'southwest': {'lng': 8.207226599999998, 'lat': 47.4843126}}}, 'types': ['university', 'point_of_interest', 'establishment'], 'reference': 'CmRSAAAA0IxVUkrEBDOS_nQDI7fCLHcGarvkJtpQIc9zSQTpKZ8_8mt6m0NhqqizI9vUnQJCm5_G-40SpPCidFThm5Z0t2OrXYFPfHshPIeO5VG13nyvnrE2flH842AOIzKxgU6ZEhCy17_Z3pdGw2L4va_UFnwdGhREid15inQo2fbrt-7MhMpefOza_g', 'name': 'Fachhochschule Nordwestschweiz Verwaltung', 'id': '73edf2c570e1aa5e8d6426f9adb3bb22bd92e678'}], 'html_attributions': [], 'status': 'OK'}"
Pädagogische Hochschule Schaffhausen - PHSH,176691.0,"{'results': [{'icon': 'https://maps.gstatic.com/mapfiles/place_api/icons/school-71.png', 'formatted_address': 'Ebnatstrasse 80, 8200 Schaffhausen, Switzerland', 'place_id': 'ChIJaz2FyteBmkcRVaBtCVv5Zqg', 'geometry': {'location': {'lng': 8.645286199999997, 'lat': 47.7073984}, 'viewport': {'northeast': {'lng': 8.645387299999998, 'lat': 47.70779065}, 'southwest': {'lng': 8.644982900000002, 'lat': 47.70726765000001}}}, 'types': ['point_of_interest', 'establishment'], 'reference': 'CmRSAAAAHgIEaZQ0lWigX9rpVlgAFDE45jRuxQs--qyYLK9TFS5oZs53NPkT7mhL98Zm7sManuLn5pr3t2a0uQOQAd6iXWPZXgI3ai_-VfUnTpkbr-L4ekchQM93f7jtOHu7EM3AEhDJ5shWQNDqo5rz_97FqWvbGhTenj1zH06TjfE4lGubAKfvDx0OVQ', 'name': 'Pädagogische Hochschule Schaffhausen (PHSH)', 'id': '2dd708f308987b7b0155b763b1f39ee53e03cdc0'}], 'html_attributions': [], 'status': 'OK'}"
Pädagogische Hochschule Schwyz - PHSZ,936551.0,"{'results': [{'icon': 'https://maps.gstatic.com/mapfiles/place_api/icons/school-71.png', 'formatted_address': 'Zaystrasse 42, 6410 Goldau, Switzerland', 'place_id': 'ChIJs984bVpRhUcRvv4r2APXRTI', 'geometry': {'location': {'lng': 8.5532354, 'lat': 47.0450543}, 'viewport': {'northeast': {'lng': 8.553341800000002, 'lat': 47.04579995}, 'southwest': {'lng': 8.552916199999999, 'lat': 47.04480574999999}}}, 'types': ['point_of_interest', 'establishment'], 'reference': 'CmRRAAAACTiVeAqUXwJ2thHNuT2FOeCUlOI6E864l4tGkmb5pHC02iV1e8FMCj69X-fw7v8Ct4z0dRoaTPTSWP4XvAHcgVgLYnSK6NZ5sTozfhQe-rPYUAouSsetTpv2XfFTa7o2EhAO55Io2tavfrnv__k0Wv4ZGhRll0SmfPo8Ow5d6z45Kferh5hFqQ', 'name': 'Pädagogische Hochschule Schwyz', 'id': 'c12e4b81612df5e4e83801693c0be65613d48c3b', 'photos': [{'photo_reference': 'CoQBcwAAAMFomwl37otLyCMJ17TMUrPvdedJ9R7VJzsyBB54eaqRH5NUi58EcOBAnjMvvQRASKxDOB_q-CAAf1ZbSfDv0NeGzDQh-6aAmiU04T3p9AhxmoJWrEWeeEt8EtXnASx6ppDKEtCt6Zs0Mp56iuXlaXVvRpsXsUzlixj4BEdpqtiwEhBMstXs21eewocYbPDHfF48GhQiUkyEHl6kEFyt3_hn6nc71A0iCA', 'html_attributions': ['<a href=""https://maps.google.com/maps/contrib/110349508243327286409/photos"">Iwan Schrackmann</a>'], 'height': 1067, 'width': 2959}], 'opening_hours': {'weekday_text': [], 'open_now': True}}], 'html_attributions': [], 'status': 'OK'}"
Pädagogische Hochschule St. Gallen - PHSG,2098387.0,"{'results': [{'icon': 'https://maps.gstatic.com/mapfiles/place_api/icons/school-71.png', 'formatted_address': 'Notkerstrasse 27, 9000 St. Gallen, Switzerland', 'place_id': 'ChIJu93y_8fgmkcR-Mhdp2otz94', 'geometry': {'location': {'lng': 9.3824689, 'lat': 47.43028289999999}, 'viewport': {'northeast': {'lng': 9.383222050000002, 'lat': 47.43048515}, 'southwest': {'lng': 9.382217849999996, 'lat': 47.42967615}}}, 'types': ['point_of_interest', 'establishment'], 'reference': 'CmRSAAAAJVf3AO8CTNxSUiCeIualZfdV7Wvubfz-WfmbR1zE6ZECLtMkv8YnlWtWvXj14YL6ZKWCs-yPRFSEu0DTA-gm_LTemDA32kdvJA-i1Tr-D7-CiF4C-NEWkUbyRGysi5B1EhCJIn-546He9PBrCblp9FdSGhRJI9h9Ol9yEfR8llsaVt5N1sDEKQ', 'name': 'Pädagogische Hochschule St. Gallen', 'id': '9e5cfca2f01624a2c70b08aa06725e3f7d940450'}], 'html_attributions': [], 'status': 'OK'}"
Pädagogische Hochschule Thurgau - PHTG,1526446.0,"{'results': [{'icon': 'https://maps.gstatic.com/mapfiles/place_api/icons/school-71.png', 'formatted_address': 'Unterer Schulweg 3, 8280 Kreuzlingen, Switzerland', 'place_id': 'ChIJOQhlV9_2mkcRKqX61TYdgYo', 'geometry': {'location': {'lng': 9.1806833, 'lat': 47.6475771}, 'viewport': {'northeast': {'lng': 9.18083305, 'lat': 47.64790635}, 'southwest': {'lng': 9.18023405, 'lat': 47.64746735}}}, 'types': ['point_of_interest', 'establishment'], 'reference': 'CmRSAAAARSjCtq_goTMSOQhv-DGFbaFJwLYGfPSZezvoWDkI3JK6AREtzobNooGzHnDJdoFjgbqP_OS1ZBDHOJQVsXyxJisztksLBUBZMszZheypsL2Cld14SJqU8UsakeIxlfpzEhDVr1GByFdBXbXKVNCEraKzGhRXKtQvg-tFIqB5-p8BDVacp3F_Qw', 'name': 'Pädagogische Hochschule Thurgau', 'id': 'eb53991133f87a7ea67bcb002ea13e9d281774e6', 'photos': [{'photo_reference': 'CoQBcwAAAMeDCpS4YM6dKB_Fg7B2etFAOfjFm4B6UMHsF9yXpqgb39HXKjdQv8gPo86bcGy7XXdhNxoVlmgCA9MeTX7YA-sy7QGgaC54CvQI6ZhV2ZXXvCmqepwrOanv838U_hN2CTtVREfOx4C-_ek7LHwPaVim00smBIDunKKiGXmY32GHEhCI5VSBHR7rLDpEIRd4mRRUGhT7L9euM9xq1bgECulWGiNB1A-q0Q', 'html_attributions': ['<a href=""https://maps.google.com/maps/contrib/104078692794549712022/photos"">Claudio Zingg</a>'], 'height': 666, 'width': 1000}]}], 'html_attributions': [], 'status': 'OK'}"
Pädagogische Hochschule Wallis - PHVS,425498.0,"{'results': [{'icon': 'https://maps.gstatic.com/mapfiles/place_api/icons/school-71.png', 'formatted_address': 'Avenue du Simplon 13, 1890 St-Maurice, Switzerland', 'place_id': 'ChIJT3p0ZFe5jkcRDoxcYOQeovY', 'geometry': {'location': {'lng': 7.005294300000001, 'lat': 46.2155597}, 'viewport': {'northeast': {'lng': 7.005607800000001, 'lat': 46.2155969}, 'southwest': {'lng': 7.0043538, 'lat': 46.2154481}}}, 'types': ['university', 'point_of_interest', 'establishment'], 'reference': 'CmRSAAAAMJ1xA3N3B_55kgO9yqa-FRl-Ii3Rjed5ECPQJYdS59_nu-r3tifdRwSptP3kfjK-UDQBs7s1tksC_-79-ykht6pnU8yGZ6tlB_DvakoS8d7gdtU-WS9LJSWinhym39xfEhA502Mf70BXPDOQc3lzIbaYGhRTzoDbahTfc3KfgIqsXLfkoHDNcg', 'name': 'Haute School Educational Du Valais - Hepvs', 'id': '4264b59cf4dfeebe3502c8a1e38bbdbd0300059a', 'photos': [{'photo_reference': 'CoQBcwAAACU52vI6fXVaB7LydWKx3TQzOiFjPsYPMODLSwgt8tqJD29pKv0Y7xQYuZa7xZo1RHpdx7PHxp5UVTQjRv4Qcb8uvQ1qRZYxoM0wsR--D0NOpnYwCQ0qFOIGd7dZF5795tfRtF6Da8JcpjEuOehPo1rFsOkVn-Vhq_etuDjsSiQLEhBJYkxeYw7WMkYU3-PNDzNnGhTZT2Zzk7pQoJ_H6qM1C02IJIztMg', 'html_attributions': ['<a href=""https://maps.google.com/maps/contrib/115674437703655839264/photos"">Corinne Ramillon</a>'], 'height': 291, 'width': 624}]}], 'html_attributions': [], 'status': 'OK'}"
Pädagogische Hochschule Zug - PHZG,495715.0,"{'results': [{'icon': 'https://maps.gstatic.com/mapfiles/place_api/icons/school-71.png', 'formatted_address': 'Zugerbergstrasse 3, 6301 Zug, Switzerland', 'place_id': 'ChIJ5xiO3PqqmkcRcOIPuM2oOwA', 'geometry': {'location': {'lng': 8.5188031, 'lat': 47.16221090000001}, 'viewport': {'northeast': {'lng': 8.51894435, 'lat': 47.16231335000001}, 'southwest': {'lng': 8.518379350000002, 'lat': 47.16190355}}}, 'types': ['university', 'point_of_interest', 'establishment'], 'reference': 'ClRQAAAAQ9-kXVYcjWLhIOscjmNRxSDs33iew81qchLHXGmsZv_onyLdVobycVWGuUicOF7oGujYZVORCEQamQ72q3_-CioqJQro1B6YNweFxxB5yqYSEF45Xd5h8EtluIOYzFmXevcaFPGyv1jcVcubuGNsR4RGGUI0tlhN', 'name': 'Pädagogische Hochschule Zug', 'id': '2b01b74c775efd53fbaa4f820fb32d0f4d004f1d'}], 'html_attributions': [], 'status': 'OK'}"
Pädagogische Hochschule Zürich - PHZFH,3298346.0,"{'results': [{'icon': 'https://maps.gstatic.com/mapfiles/place_api/icons/school-71.png', 'formatted_address': 'Lagerstrasse 2, 8090 Zürich, Switzerland', 'place_id': 'ChIJTythk66gmkcRuOvvXWxmIA8', 'geometry': {'location': {'lng': 8.534657200000002, 'lat': 47.3776241}, 'viewport': {'northeast': {'lng': 8.535064250000001, 'lat': 47.37785945}, 'southwest': {'lng': 8.533436049999999, 'lat': 47.37691805}}}, 'types': ['university', 'point_of_interest', 'establishment'], 'reference': 'CmRRAAAAeThCkdBhVfzk4MA2cs2yAJDOf1mdHZup4Vnd_7kr1y0vwOW2ztc080cj7awGw5Ygfdr0sy-EtmMV-PuNHjeZxQnW37X3S7bbKIPwfL8CrXLPs905uj_F0yuxolnWsslyEhBIF7fyD5tiFqmpr-Z5cjPqGhSQ9JRdMm5CXSzkF9hGwUfLJERv0Q', 'name': 'Pädagogische Hochschule Zürich', 'id': '52823bd165a7acfbe507981fe1db23412b9c9cd3', 'photos': [{'photo_reference': 'CoQBcwAAAESNI4vZV1zJPiqpRPZAbjGSRGwBXEOQiOUkJBxOHBwdbIw912t7dR8T5DH6xBR6fwdoT5RS--oziz4s9j0QBz6QdjUfVfWTUheGFNKptCbxELyi2kyxncWWa8J02LKhDjONKgyhijtHkiFU-KqTyxdYT_CA24P4Fg08e5USvDPzEhCVrS9Vj3OCPGnoWlTYDTIRGhQ5Bkqc-ShDEGkIvVld0NhKQrleRQ', 'html_attributions': ['<a href=""https://maps.google.com/maps/contrib/105906710950521748873/photos"">Pädagogische Hochschule Zürich</a>'], 'height': 3102, 'width': 5616}], 'opening_hours': {'weekday_text': [], 'open_now': True}}], 'html_attributions': [], 'status': 'OK'}"
Robert Walser-Stiftung Bern - RWS,569579.0,"{'results': [{'icon': 'https://maps.gstatic.com/mapfiles/place_api/icons/generic_business-71.png', 'formatted_address': 'Marktgasse 45, 3011 Bern, Switzerland', 'place_id': 'ChIJySu6KsE5jkcRLXy91MDUyhM', 'geometry': {'location': {'lng': 7.445112199999998, 'lat': 46.94793850000001}, 'viewport': {'northeast': {'lng': 7.445149850000003, 'lat': 46.94807095}, 'southwest': {'lng': 7.445099649999997, 'lat': 46.94789435000001}}}, 'types': ['point_of_interest', 'establishment'], 'reference': 'CmRRAAAAWzNysyfErvvlrlADoyA30-zvjqPu2xLLfRAwEksEMUgfHKvHbnRxMcEyw9E2H2kZPFZqlSPbe1b8t0vxwSwIoCIxgqRbBuzS5XSibjkg6R9VUUfQJVo-FXOEkUpQWoc7EhD5cmUXqkBx3e60pH8TFypmGhQMvdXzoxnKx8pi62rTWsDFwZT2DQ', 'name': 'Robert Walser-Zentrum', 'id': '79be2b998deb0fbb413913333debabb6c752baee', 'opening_hours': {'weekday_text': [], 'open_now': False}}], 'html_attributions': [], 'status': 'OK'}"
SUP della Svizzera italiana - SUPSI,24040082.15,"{'results': [{'icon': 'https://maps.gstatic.com/mapfiles/place_api/icons/school-71.png', 'formatted_address': 'Via Cantonale 2C, 6928 Manno, Switzerland', 'place_id': 'ChIJa9ruCZgyhEcRKBxQF-sal_s', 'geometry': {'location': {'lng': 8.917128700000001, 'lat': 46.0233459}, 'viewport': {'northeast': {'lng': 8.917421250000002, 'lat': 46.02357225000001}, 'southwest': {'lng': 8.916251049999998, 'lat': 46.02327044999999}}}, 'types': ['university', 'point_of_interest', 'establishment'], 'rating': 4, 'reference': 'CmRSAAAA6i5y5y1G8PYFOtwYNJeeDvFHByWIj8KSJLL1LjzTN3Zv7GtpL28KiS85S5yaWl5OoY8S5rEXYdkwvRPcZ4Nr-vaTt319h2ykcJyH1HWUqvxTc_tMGUXwguBbmdh9w3bsEhDiaq_620tS8EZKjrCS5gRIGhT0JKEPh0xGtTgTyFIO_FcATY2w-w', 'name': 'SUPSI - Dipartimento tecnologie innovative (DTI)', 'id': 'ddc3e8744c15431758985d7ad09eee593f547785', 'photos': [{'photo_reference': 'CoQBcwAAALmNa41cF4jO8LU2cNy0bBEYnj3Ovz9dbQIYnPAi03UUhZLmatzOY9R6iAQETGZr52WcyN60ioE7q-OuSvr_aI68SW-PwmKjpoL3TkEihYDIblZxu3VUOZcZhOAGCVhjwJStcPqEESfM0XjmlTmiSbRFOzPNYIPm5BSzjK4hxQYBEhDA42Tx8eFMykEyGrX-OMWrGhQJ6BRraa877GE2L8kpy7H_aBoOaQ', 'html_attributions': ['<a href=""https://maps.google.com/maps/contrib/110954921955323914000/photos"">Lorenzo Sommaruga</a>'], 'height': 486, 'width': 648}], 'opening_hours': {'weekday_text': [], 'open_now': True}}], 'html_attributions': [], 'status': 'OK'}"
Schweiz. Hochschule für Logopädie Rorschach - SHLR,429600.0,"{'results': [{'icon': 'https://maps.gstatic.com/mapfiles/place_api/icons/generic_business-71.png', 'formatted_address': 'Seminarstrasse 27, 9400 Rorschach, Switzerland', 'place_id': 'ChIJ1VN6wLkbm0cRVM9YRZU6UPw', 'geometry': {'location': {'lng': 9.4948635, 'lat': 47.4726127}, 'viewport': {'northeast': {'lng': 9.49494135, 'lat': 47.47294825}, 'southwest': {'lng': 9.494629950000002, 'lat': 47.47250085}}}, 'types': ['point_of_interest', 'establishment'], 'reference': 'CmRSAAAAk9NdHKLnth88bzcuem58sd2-Mm69Ow7ORFj1Njuy4wl4919QvUH4zhlZVrvtjrG2ZmBDLhjMy6KNmKXZPADDkgwAdjF_N8lZA-LpMBXRHgY4iL43ONSHDqRYRZBFRlfJEhC8eWtcswHLpTJ2eWS42CcqGhQ3iiLq1VjLvxMWTuFnMF-mBQQ2Cg', 'name': 'Schweizer Hochschule für Logopädie Rorschach', 'id': 'db05cefdaff11f84b2a8b2511cbdd1ce8f658e3f'}], 'html_attributions': [], 'status': 'OK'}"
Schweiz. Institut für Kunstwissenschaft - SIK-ISEA,4649550.0,"{'results': [{'icon': 'https://maps.gstatic.com/mapfiles/place_api/icons/generic_business-71.png', 'formatted_address': 'Zollikerstrasse 32, 8032 Zürich, Switzerland', 'place_id': 'ChIJKTPVREynmkcRRgunrTGtAqg', 'geometry': {'location': {'lng': 8.555274899999997, 'lat': 47.362492}, 'viewport': {'northeast': {'lng': 8.5554615, 'lat': 47.3625391}, 'southwest': {'lng': 8.555212699999997, 'lat': 47.3624763}}}, 'types': ['point_of_interest', 'establishment'], 'reference': 'CmRSAAAAoFFqKJN_KB3Pa21iStQ4kmFVnmb9AEYvTXz7PDTGBrSPWNdaANoO92qWXKKFCViDM3DBgIf-hh074agkxuNPodpwnMDCEKIQJhSi5J2KbswrBu0ZEM9KlgUQf-0mqJiNEhCPOPLvjppMd7NaE2wc6MOGGhS-EJ6TNrIHi7ckFiBzgmPoKWQQ4g', 'name': 'Stiftung Schweizerisches Institut für Kunstwissenschaft', 'id': '9f3e77d127dc70c475473913f44a479c427e91f7', 'photos': [{'photo_reference': 'CoQBcwAAAP6h6JmKAAfo1PhOt6rhxDyrHcbFjlsdi8OAPbqo-qWAaNz0zXk70L6_3ywCR_pS0H1gPhTiCBzyPnlSUeYwC5HnfwkLNs3eeo6SnSaDh71qvk_xGS_A_W25F_mwrdfXDvv94bINRPsBdDrXGIUuiAeqZqqRVFqFII9uFVT67RUHEhCVCvrwljobohYYJFlG8qdZGhR1N3rZkICP0O-Jzn1wKZdZ5eqPVw', 'html_attributions': ['<a href=""https://maps.google.com/maps/contrib/113192922215136222051/photos"">Olivier Monnet</a>'], 'height': 1538, 'width': 2048}]}], 'html_attributions': [], 'status': 'OK'}"
Schweizer Kompetenzzentrum Sozialwissensch. - FORS,34735816.0,"{'results': [], 'html_attributions': [], 'status': 'ZERO_RESULTS'}"
Schweizer Paraplegiker Forschung - SPF,1944211.0,"{'results': [{'icon': 'https://maps.gstatic.com/mapfiles/place_api/icons/generic_business-71.png', 'formatted_address': 'Guido A. Zäch Str. 4, 6207 Nottwil, Switzerland', 'place_id': 'ChIJhXmCFErgj0cRHF5Hqn-KntE', 'geometry': {'location': {'lng': 8.1310359, 'lat': 47.13998429999999}, 'viewport': {'northeast': {'lng': 8.1312902, 'lat': 47.14101525000001}, 'southwest': {'lng': 8.130272999999995, 'lat': 47.13964065}}}, 'types': ['point_of_interest', 'establishment'], 'reference': 'CmRSAAAAH-UfUOYanSeuiWRAg5bDqEMg-osZHMqXNyhTMjT5WP5WRWdRpKTEYoxrk_i3SdvluJ93NwBozmdcRnpI6YzqrSknsCz6DUpWo5YAqzVh_imc9uXIJOItLu7MvqW7UH4rEhAf5FgdsgsIhn_FxE3Dfl6tGhSmwZL2EAKllONLoq1MGthRMxIihg', 'name': 'Schweizer Paraplegiker-Forschung AG', 'id': 'd19ea9cf5b99208bc8bb2ba0fa148ebfd6a6adeb'}], 'html_attributions': [], 'status': 'OK'}"
Staatsunabh. Theologische Hochschule Basel - STHB,17300.0,"{'results': [], 'html_attributions': [], 'status': 'ZERO_RESULTS'}"
Swiss Center for Electronics and Microtech. - CSEM,18068246.0,"{'results': [], 'html_attributions': [], 'status': 'ZERO_RESULTS'}"
Swiss Institute of Bioinformatics - SIB,11583219.0,"{'results': [], 'html_attributions': [], 'status': 'ZERO_RESULTS'}"
Università della Svizzera italiana - USI,84970554.75,"{'results': [{'icon': 'https://maps.gstatic.com/mapfiles/place_api/icons/school-71.png', 'formatted_address': 'Via Giuseppe Buffi 13, 6900 Lugano, Switzerland', 'place_id': 'ChIJ4USdfYothEcRYG1WqHl9FFE', 'geometry': {'location': {'lng': 8.958257200000002, 'lat': 46.0109603}, 'viewport': {'northeast': {'lng': 8.961216950000003, 'lat': 46.01199499999999}, 'southwest': {'lng': 8.95497835, 'lat': 46.00980300000001}}}, 'types': ['university', 'point_of_interest', 'establishment'], 'rating': 4.6, 'reference': 'CmRRAAAAqxa2h1agULlFJJ8XkHQtmTQA0IgXqoMb5-R4OB5Xb3elQJCoDrCQkq4aDsUFzKIbRwBvAFvxTbmg0w52VX5mrF7dPPn3Cb9x33vZmNABwSPubSQ0XPk4Yw0fb8ieGWOiEhDo93A4kJ0FuvmG8LH3MXJ3GhSMZ4k2pKvpO41jbByOvdYyb24VaA', 'name': 'Università della Svizzera italiana', 'id': 'a8095cf53f80dc762219c95ec9d41b9fc10be314', 'photos': [{'photo_reference': 'CoQBdwAAAHm7U56B_V3CuhCI0gfIJC4a-IHi4awJbXxUJvJMJE_m1wy637WJP9XAtzpHnln-h4qfVFmsVe2u0ydQeaZR1Q1fQRY1qmtL2agFyHFMxWRNymU2xOXbOB41jooBPQ4X8VyUc6xKH-fsxiNGp2M_nKvITa5RLovR4Zx2lyYZBWwAEhCNfJb3qF5n-tBOfX_TLGztGhQStb7ZxdBFFvvSg9B40K9rcSZhIg', 'html_attributions': ['<a href=""https://maps.google.com/maps/contrib/112750375262132765910/photos"">Costanza Volpini</a>'], 'height': 3464, 'width': 4618}]}], 'html_attributions': [], 'status': 'OK'}"
Universität Basel - BS,1352251464.37,"{'results': [{'icon': 'https://maps.gstatic.com/mapfiles/place_api/icons/school-71.png', 'formatted_address': 'Petersplatz 1, 4003 Basel, Switzerland', 'place_id': 'ChIJL83_P6i5kUcRi9jPK04l940', 'geometry': {'location': {'lng': 7.5826, 'lat': 47.56025349999999}, 'viewport': {'northeast': {'lng': 7.585266149999998, 'lat': 47.56111015}, 'southwest': {'lng': 7.581687950000002, 'lat': 47.55768355}}}, 'types': ['university', 'point_of_interest', 'establishment'], 'rating': 4.4, 'reference': 'CmRSAAAAVFkXy9yiDIVR-08qtvqAJl3Hwxts6WuBlFgwdyoNVGKe4d7GsPctimqufpHRXPmm9KXukEkUu7f6qDWvdb1Fx8E1EZdVk0sU1O5IA8aHsT7r_UiEcUaK-8tpMZY0gYzHEhB0q_og1mV7_fFQErJzwM_xGhSr3JmvBoN_Bmh91PSiilZB2q1mFg', 'name': 'University of Basel', 'id': 'c5d3b3582354281535520c32017454ee18ed3e5c', 'photos': [{'photo_reference': 'CoQBcwAAAI_yLoV--D3ySH2PlLBx-NnTBmcRlzTX47vrpYrFvQZ8p80iPLK_sLBjdywDOTyEdSdrQ-0EvNEWw3vpfCoESjso6VQgF86ZFbnvmdiklxneGf2VyPsGzJFZDtDoolGKa-WtJkLsuaQ-OxNy51k2Y1vEWAGSZLmCXkeDGiIT-o9xEhDCThn9ZTX4buNfK6r3GICuGhQpB6uKQnPpz5Gi1uruU3eBAg2ruw', 'html_attributions': ['<a href=""https://maps.google.com/maps/contrib/117674120228154765674/photos"">Carneiro Manel</a>'], 'height': 1224, 'width': 1632}]}], 'html_attributions': [], 'status': 'OK'}"
Universität Bern - BE,1519373034.69,"{'results': [{'icon': 'https://maps.gstatic.com/mapfiles/place_api/icons/school-71.png', 'formatted_address': 'Hochschulstrasse 6, 3012 Bern, Switzerland', 'place_id': 'ChIJDWEotJ85jkcRRP-8NWlTN-E', 'geometry': {'location': {'lng': 7.438119000000002, 'lat': 46.9504896}, 'viewport': {'northeast': {'lng': 7.438500250000003, 'lat': 46.95084540000001}, 'southwest': {'lng': 7.436975249999997, 'lat': 46.950371}}}, 'types': ['university', 'point_of_interest', 'establishment'], 'rating': 4.6, 'reference': 'CmRSAAAAXYSwGTBi7PlNVfUowmgew5Xiuc0GesZyLE5B7XqhluKHRtwCKEipVIRcbfJ8pXMF8Moa69QebClXrZkGc8TVAiFRsH0n14lJPYu8UAaNsKUtmCq4nnnkL571xeOzLIhyEhDePdM8zyj-lwnfQKEn8QNiGhSw_XoSAJblN5C-BtGw_U8Xg3vhhA', 'name': 'University of Bern', 'id': 'e40d464db0a6300d9256bbb90297e92fafd0acb4', 'photos': [{'photo_reference': 'CoQBdwAAAJ4VP9Ctn-fOfLgpyCZtAo3-6fvR6n47lumnf-8ZiiSglkTif0HSgKcjMIv_v6CEGePOAeWU488aqOFQgcF5oRjGKk-Xrywc2O-Pv4PhkOG0yP4-PnI4rqdG8wtnrf9wtAjx76mqiEov_zrURLSmDsPNN34rWYlhuLvOs-yHOoEqEhBt1OSNMJLVHNxFGcMNHDTXGhQBVNLgSE87M9wBtnxF39Ph7-epYg', 'html_attributions': ['<a href=""https://maps.google.com/maps/contrib/101247879953540919465/photos"">AlmostSwiss</a>'], 'height': 768, 'width': 1024}]}], 'html_attributions': [], 'status': 'OK'}"
Universität Luzern - LU,39981678.309999995,"{'results': [{'icon': 'https://maps.gstatic.com/mapfiles/place_api/icons/school-71.png', 'formatted_address': 'Frohburgstrasse 3, 6002 Luzern, Switzerland', 'place_id': 'ChIJS3qhAp_7j0cRrdH8IQzvZFE', 'geometry': {'location': {'lng': 8.312521499999999, 'lat': 47.0494042}, 'viewport': {'northeast': {'lng': 8.313654499999998, 'lat': 47.05099299999999}, 'southwest': {'lng': 8.309122500000003, 'lat': 47.0488746}}}, 'types': ['university', 'point_of_interest', 'establishment'], 'rating': 4.4, 'reference': 'CmRRAAAAFd9tw5ZGAeemlgZTdkyFHcVYJEEVf9Jt33weZ2TMbWKnWy6pRt3NJtUZ-_Xu8gmI6kPf9qVn_1QX2Si6vENJJx1qDLgw-s54eEGpZfllFq7Uk8YDMYE6xDg16OVx6CJqEhAHmUXtsbY4rQJPAaF0TXr_GhSPPUE2FZhHp4x8TiDT1rMwqfSy3Q', 'name': 'University of Lucerne', 'id': 'a2dc5ee7e5d377ad61d4bc17e30d0994663a198f', 'photos': [{'photo_reference': 'CoQBdwAAAGodp49icd2qxYhfuVmxLmUYW8AJw23RCksElc0m799MQjSqldOUgl71FoKYMWqjpf6y_-BH7KYazCrDLzinsBGTEjm6_7e686wFVr6KIQMNP9p4hRm6OOUd7DrjYgMDR83SZGYZmmlB9i4vpKd_2O_hp7O-B7IwocKatHLJv1NGEhAqN1LnEjgA6jipSrCxoRdYGhQIY-qga4B4Bi2xNoWN78LIqMuxiA', 'html_attributions': ['<a href=""https://maps.google.com/maps/contrib/110086193069434129086/photos"">Sven Möller</a>'], 'height': 3024, 'width': 4032}]}], 'html_attributions': [], 'status': 'OK'}"
Universität St. Gallen - SG,69194954.44999999,"{'results': [{'icon': 'https://maps.gstatic.com/mapfiles/place_api/icons/school-71.png', 'formatted_address': 'Dufourstrasse 50, 9000 St. Gallen, Switzerland', 'place_id': 'ChIJud_ySkYem0cR1APJCqJflqw', 'geometry': {'location': {'lng': 9.3755673, 'lat': 47.43215749999999}, 'viewport': {'northeast': {'lng': 9.3792944, 'lat': 47.43590285}, 'southwest': {'lng': 9.372021600000002, 'lat': 47.42768505000001}}}, 'types': ['university', 'point_of_interest', 'establishment'], 'rating': 4.8, 'reference': 'CmRSAAAAP21hmkLN_BKiflHg_LEod8zBDL124FPZmsewUZ4PFKw0CGcD3B_t3cfUDjrvIlDQ14svjd5L73VWKsUyahTHd0D3Fm5r7t31iAOljALmq9KzsiUBT71SuPqvKdLhYQ1pEhBdxmU7EdceTpjJadM3PzJ8GhS5JekfJBikyVeDgmkECo7jjDwUeQ', 'name': 'University of St. Gallen', 'id': '20ba7a060f7799ba6ac0ab861c621fd250dfb04c', 'photos': [{'photo_reference': 'CoQBdwAAAPKg9UMvusrXiwemxl2CLRiUOaPSDqnE-sIPHKo1LW0yxGeGtwpXaR_vFR7JMmhReuXWAZw9O29iH9FtknxwQu3etMdxWV6iQKd8ojeNKQSHR9EijGKTJ0JQOBLkcoC4irggDYiQu3YsMwzHXmczHpjvidqGLJ6rm7KyNKkfnaufEhDj7Fjy3gWgLzRbavv0QkQ3GhRX8F3yOxlAXjyGSrHJNR0yrpAIRA', 'html_attributions': ['<a href=""https://maps.google.com/maps/contrib/117076128288977481057/photos"">Peter Traurig</a>'], 'height': 1836, 'width': 3264}]}], 'html_attributions': [], 'status': 'OK'}"
Universität Zürich - ZH,1826842675.0000005,"{'results': [{'icon': 'https://maps.gstatic.com/mapfiles/place_api/icons/school-71.png', 'formatted_address': 'Rämistrasse 71, 8006 Zürich, Switzerland', 'place_id': 'ChIJi4WVWJ-gmkcRz9p-0FL6ULo', 'geometry': {'location': {'lng': 8.550981199999999, 'lat': 47.3743221}, 'viewport': {'northeast': {'lng': 8.55561255, 'lat': 47.38142135}, 'southwest': {'lng': 8.54450635, 'lat': 47.36831115}}}, 'types': ['university', 'point_of_interest', 'establishment'], 'rating': 4.4, 'reference': 'CmRSAAAAh62tAHjsYt3iODgZCqLScpVDtb5mF_AATktAx4AI9tz-cHd0EadgirhIzsp-XKPK1qhGvNkQMjB2ycSTnUHft9HUyUMWla1jS0ZGRJ-8N2wpYq8j4YG8oA-jRaC-qwQHEhA7ccuJlJXVPxF4lTCtbDD-GhTXfwxp9yxNFZUo-ufQ6MK6Wn9EnQ', 'name': 'University of Zurich', 'id': 'a724e9f1467096b09e9da3cce46be7a90970243a', 'photos': [{'photo_reference': 'CoQBcwAAAC3o5bYDbzBtAVIZJux2Jo6cE1Vej9Zoi_kMGUu9AxG5SG8206JXFFQHmAwJemgav3Mv-wEmnTFqqDqtbo5FBgR_qWSdIGcTqOw0lTmqqqksoh3Z86-u71ibUrFBAqEhfkxLd3gVfRr3IOL9rfKZSwJ8LwoImq60313GXh1bBYKTEhDiMMx06L30MRp02NqxWEpbGhSZHIWVk4Lw64wj5HpI0htoU7u9zQ', 'html_attributions': ['<a href=""https://maps.google.com/maps/contrib/100717325153424508580/photos"">Universität Zürich</a>'], 'height': 1071, 'width': 1772}]}], 'html_attributions': [], 'status': 'OK'}"
Université de Fribourg - FR,457526170.2500001,"{'results': [{'icon': 'https://maps.gstatic.com/mapfiles/place_api/icons/school-71.png', 'formatted_address': ""Avenue de l'Europe 20, 1700 Fribourg, Switzerland"", 'place_id': 'ChIJVbSPbjJpjkcRGdtTo-6IwUw', 'geometry': {'location': {'lng': 7.152006, 'lat': 46.806357}, 'viewport': {'northeast': {'lng': 7.153449750000001, 'lat': 46.80745080000001}, 'southwest': {'lng': 7.151524749999999, 'lat': 46.80599239999999}}}, 'types': ['university', 'point_of_interest', 'establishment'], 'rating': 4.3, 'reference': 'CmRRAAAAKOygUC8e5UaW1Y-lTH1HdSL8xmZFNSP2-T0bWEAHMnDNYdBiHkaqMCWpro_kG_SZ603DXaxsMuqN-4-_VXTZ1d1K5_fK55dSe9g3I8HnR-0BD2RqmGltXrRkglKk7TtOEhCr2yjSSxskClXEECvQAW0MGhSgUEp0RxpMIMQa6pkfQEib01RQOA', 'name': 'University of Fribourg', 'id': '3fa27d3dda007f2a2e6b3068eec7b425d27fbc26', 'photos': [{'photo_reference': 'CoQBdwAAAIegHq8DD7UZERmWz_XbFZXJcS3C7dESuYoaw6WhZLdQR95h789l3a8PWB5nGOqrRnf3h9NNJWVo3GFhnonKK_nuby2PYyp4balTP7QCdaw_1Wna21JvJv3uAz5dx2SwBF9VEVripCTJv60qfpupqZA5Bm67ajfwe58YLqClGkVFEhBOSSm1ATik5WUyTe4CZjW7GhQZ0t7Lmo2PHqE-L3WchM3EtmPzjg', 'html_attributions': ['<a href=""https://maps.google.com/maps/contrib/116838088273996557962/photos"">Federico Respini</a>'], 'height': 1080, 'width': 1620}], 'opening_hours': {'weekday_text': [], 'open_now': True}}], 'html_attributions': [], 'status': 'OK'}"
Université de Genève - GE,1838237308.4999998,"{'results': [{'icon': 'https://maps.gstatic.com/mapfiles/place_api/icons/school-71.png', 'formatted_address': 'Geneva, Switzerland', 'place_id': 'ChIJ3yKsR1FkjEcRIpuYmmtbIq0', 'geometry': {'location': {'lng': 6.1451157, 'lat': 46.199444}, 'viewport': {'northeast': {'lng': 6.146152850000001, 'lat': 46.20045794999999}, 'southwest': {'lng': 6.142004249999998, 'lat': 46.19747575000001}}}, 'types': ['university', 'point_of_interest', 'establishment'], 'rating': 4.3, 'reference': 'CmRSAAAAxQ83rejfYpOc2RW4IP-P8VgjHdG6SebcLiDXLg3ao6jY5AqFfche91XaKea0ClKcjQQjgi-qp9waB2oA-hLlAGH0sse3RVmcjHXSJxzPiBhycKJWMEXyKT2pmTKEmLUpEhBmodl7H-vulHlttefprvyeGhS_0KyLvOex3WyGyfn4a0H00ZZzkQ', 'name': 'University of Geneva', 'id': 'a9ef02f59afc7d055563beca4d1f509efa98cde8', 'photos': [{'photo_reference': 'CoQBcwAAALjhSXebnEJo6DxHwJf8Wt14OkmXEgemc5Xhm7LufN_XGFbirsYzrLm_pcWM8L-WHBFfpUB1EjCiHNUZecBJeoh8Qxz6QFrnxqiEbtwcstFB2frTGyoHAI9L8I2qcFgR1GDxAW7xq6leoPDJ37qtXHs8Y1ZkJbKokVKaeK7eMH7kEhC4FZKohUckS9yaN4BRLJpLGhQFZKgm6qA7VCGlY5DizK4UqgEQFA', 'html_attributions': ['<a href=""https://maps.google.com/maps/contrib/107958259135711194844/photos"">Balázs Fodor</a>'], 'height': 2160, 'width': 3840}]}], 'html_attributions': [], 'status': 'OK'}"
Université de Lausanne - LA,1183290756.68,"{'results': [{'icon': 'https://maps.gstatic.com/mapfiles/place_api/icons/school-71.png', 'formatted_address': '1015 Lausanne, Switzerland', 'place_id': 'ChIJubx18aoxjEcRKKylyWpyNgk', 'geometry': {'location': {'lng': 6.5801606, 'lat': 46.5210895}, 'viewport': {'northeast': {'lng': 6.5892473, 'lat': 46.5282163}, 'southwest': {'lng': 6.566122500000001, 'lat': 46.5186955}}}, 'types': ['university', 'point_of_interest', 'establishment'], 'rating': 4.5, 'reference': 'CmRRAAAAWpeX6Q1dicMyjEUk5k1ig4BzN2dxvzaVd24ROxfEexBwto7OaTXahhDP7CSnU24LvkCJ9oQGPXpRIxo6ycH3ppl6BPzEjaANnebBQGNXSrOWA7FZOdKpVELyaXEnF-9NEhB5TMhB4hRdYjErIOls_NpGGhRDo-NR3Bnyfys5Du1oxNbSG4f0Qw', 'name': 'University of Lausanne', 'id': '924a30ca04f0d0e7c6ce9b9159ed785995e0cf03', 'photos': [{'photo_reference': 'CoQBdwAAAAT7m4xWGfNMXLxHKlVGj5cJdTNP6EED-srFEuQRPIWSCLciEpV64LxP7BNV9ikWdJZYglBFWO48vT82-_TrytJ-oQD6sEA-hKlyakvwMUc4HhvLUcoApDbBR7frEgNVPdh4CCE-ThiFujIphnyry8t2dRePptx16GP9glC1Cd3OEhC2A9ZYIEKiuuQXB3IQ2J7lGhTHHDc1emfbVBZ9lGWsXQlaxwg3Xw', 'html_attributions': ['<a href=""https://maps.google.com/maps/contrib/113141247285867836965/photos"">Saugata Bandyopadhyay</a>'], 'height': 3120, 'width': 4160}]}], 'html_attributions': [], 'status': 'OK'}"
Université de Neuchâtel - NE,383204582.29999995,"{'results': [{'icon': 'https://maps.gstatic.com/mapfiles/place_api/icons/school-71.png', 'formatted_address': 'Av. du 1er-Mars 26, 2000 Neuchâtel, Switzerland', 'place_id': 'ChIJV1NCwhAKjkcRfAeyqgbpmqs', 'geometry': {'location': {'lng': 6.938703099999999, 'lat': 46.9938549}, 'viewport': {'northeast': {'lng': 6.939259699999999, 'lat': 46.99507195}, 'southwest': {'lng': 6.9370333, 'lat': 46.99121935}}}, 'types': ['university', 'point_of_interest', 'establishment'], 'rating': 4.3, 'reference': 'CmRSAAAAtnSMTLbKjil49gvlPE0btum6bRGwG2MujOVOHar-uMIOI2LvULjFfQdyduH6-47e_1uWOJ-uYvGhm4vwue5VjfqX9V9pH9z946ldVJ1zVE9fEhKFC5aDDcapJRYAZJyCEhDOiV6T89O5snWcylTGfnrZGhQTnDBKSkQRJdMiFn1WeoJ3GxeWpw', 'name': 'University of Neuchâtel', 'id': '1578eeae56c4aaf8f2a7fa72a5ad6c2c5026f3f8', 'photos': [{'photo_reference': 'CoQBdwAAAIQRr1I3c9PE5GeLEYxh90y4-Sl8eilVk2cxt4Jvsp9s0z3gruScTdyCAEqTGkvXd_fsrUl7BfPnpnbcmQABAWu5vF6uXQXwoNyKzoil6hdXD0JPa4s0dmXiJhyuaEuwQ-85F8hrSkHkSQBXOEZXm9LFpE18BFpSPKumtemlJ_IzEhCf94hMJP4TYUE6XpAEBu1FGhQJXxAZRReMYTNDy6Tc6rAxusC6Lw', 'html_attributions': ['<a href=""https://maps.google.com/maps/contrib/118137958679512333310/photos"">Nir Aviv Shapir</a>'], 'height': 2160, 'width': 3840}]}], 'html_attributions': [], 'status': 'OK'}"
Weitere Institute - FINST,9256736.0,"{'results': [], 'html_attributions': [], 'status': 'ZERO_RESULTS'}"
Weitere Spitäler - ASPIT,10749808.0,"{'results': [], 'html_attributions': [], 'status': 'ZERO_RESULTS'}"
Zürcher Fachhochschule (ohne PH) - ZFH,44843453.12,"{'results': [{'icon': 'https://maps.gstatic.com/mapfiles/place_api/icons/school-71.png', 'formatted_address': 'Lagerstrasse 2, 8090 Zürich, Switzerland', 'place_id': 'ChIJTythk66gmkcRuOvvXWxmIA8', 'geometry': {'location': {'lng': 8.534657200000002, 'lat': 47.3776241}, 'viewport': {'northeast': {'lng': 8.535064250000001, 'lat': 47.37785945}, 'southwest': {'lng': 8.533436049999999, 'lat': 47.37691805}}}, 'types': ['university', 'point_of_interest', 'establishment'], 'reference': 'CmRRAAAAXXdl-V9htd23PxFIO9aYwTHHG8DSkk-zPo5bIu0WtedhokYliw3ZOUzy3ILZLWHivFTdQIhTEF3KaSVHDtvOXNe6_G6lRwLxmchJVuBtc0JpyBFdh4DGoIW-BYXg-ZcYEhDmCMwZ1YvUq9P1C4Fc1UW1GhQ7xWYSuUquusgS7k93gXcfNuxoLQ', 'name': 'Pädagogische Hochschule Zürich', 'id': '52823bd165a7acfbe507981fe1db23412b9c9cd3', 'photos': [{'photo_reference': 'CoQBcwAAAJeHJirOKTgkBSrXGf2PT1iHVraQOqAFjAXYinjohQf1OmLjBXp6D2J6aG-4JL3ASRtm-jeSxyKndYU7J3jStnNvoFqg_SToYO0tPAvhvc7A1iP3JtfFIA_qbrJ-58sxHa6dbZB-Ai3Z8DFJ_6DG_TTtNV06uANiLQkxM7wbS_HgEhAbzooaDuJxg5MVnF3sL4aEGhTjtFng7jE9j3uGDflvEeSm7EdyVA', 'html_attributions': ['<a href=""https://maps.google.com/maps/contrib/105906710950521748873/photos"">Pädagogische Hochschule Zürich</a>'], 'height': 3102, 'width': 5616}], 'opening_hours': {'weekday_text': [], 'open_now': True}}], 'html_attributions': [], 'status': 'OK'}"
